,year,infraction_code,street_address,count,fine_sum,fine_descrp,mean_hour,lat,lng,full_address,fine_amt
206968,2008,15,43 ELM ST,869,86900.0,PARK 3 M OF FIRE HYDRANT,15.0,43.6571928,-79.38367339999999,43 Elm St Toronto ON M5G 1H1 Canada,100.0
207724,2008,15,5100 YONGE ST,496,49600.0,PARK 3 M OF FIRE HYDRANT,14.0,43.7672827,-79.414745,5100 Yonge St Toronto ON M2N 5W4 Canada,100.0
206509,2008,15,393 UNIVERSITY AVE,465,46500.0,PARK 3 M OF FIRE HYDRANT,12.0,43.65400959999999,-79.3872207,393 University Ave Toronto ON M5G Canada,100.0
205795,2008,15,33 ELMHURST AVE,397,39700.0,PARK 3 M OF FIRE HYDRANT,13.0,43.7624237,-79.4128298,33 Elmhurst Ave North York ON M2N 6G8 Canada,100.0
208114,2008,15,56 THE ESPLANADE,384,38400.0,PARK 3 M OF FIRE HYDRANT,16.0,43.6471037,-79.3741972,56 The Esplanade Toronto ON M5E 1A6 Canada,100.0
206668,2008,15,40 ORCHARD VIEW BLVD,327,32700.0,PARK 3 M OF FIRE HYDRANT,15.0,43.7081781,-79.39970579999999,40 Orchard View Blvd Toronto ON M4R 1B9 Canada,100.0
201055,2008,15,112 MERTON ST,300,30000.0,PARK 3 M OF FIRE HYDRANT,13.0,43.6971311,-79.39278449999999,112 Merton St Toronto ON M4S 2Z8 Canada,100.0
207742,2008,15,5150 YONGE ST,299,29900.0,PARK 3 M OF FIRE HYDRANT,14.0,43.7686643,-79.413377,5150 Yonge St Toronto ON M2N 6L6 Canada,100.0
208370,2008,15,6 SPRING GARDEN AVE,262,26200.0,PARK 3 M OF FIRE HYDRANT,16.0,43.7645273,-79.41070409999999,6 Spring Garden Ave North York ON M2N 7M2 Canada,100.0
204778,2008,15,26 WELLINGTON ST E,248,24800.0,PARK 3 M OF FIRE HYDRANT,14.0,43.6483334,-79.37581080000001,26 Wellington St E Toronto ON M5E 1S2 Canada,100.0
206231,2008,15,361 UNIVERSITY AVE,246,24600.0,PARK 3 M OF FIRE HYDRANT,12.0,43.65292729999999,-79.3860299,361 University Ave Toronto ON M5G 1T3 Canada,100.0
208042,2008,15,5519 YONGE ST,193,19300.0,PARK 3 M OF FIRE HYDRANT,14.0,43.778369,-79.41481519999999,5519 Yonge St North York ON M2N 5S3 Canada,100.0
203011,2008,15,184 SPADINA AVE,174,17400.0,PARK 3 M OF FIRE HYDRANT,15.0,43.6496047,-79.3969999,184 Spadina Ave Toronto ON M5T 2C2 Canada,100.0
210614,2008,15,VILLIERS ST,168,16800.0,PARK 3 M OF FIRE HYDRANT,12.0,43.6496606,-79.347094,Villiers St Toronto ON Canada,100.0
205513,2008,15,31 ELM ST,158,15800.0,PARK 3 M OF FIRE HYDRANT,16.0,43.657446,-79.38296199999999,31 Elm St Toronto ON M5G 1H1 Canada,100.0
210145,2008,15,98 THE ESPLANADE,155,15500.0,PARK 3 M OF FIRE HYDRANT,15.0,43.6478328,-79.37256140000001,98 The Esplanade Toronto ON M5E 1A9 Canada,100.0
202495,2008,15,160 MUTUAL ST,150,15000.0,PARK 3 M OF FIRE HYDRANT,15.0,43.6592819,-79.37681309999999,160 Mutual St Toronto ON M5B 2M2 Canada,100.0
204407,2008,15,2409 YONGE ST,147,14700.0,PARK 3 M OF FIRE HYDRANT,14.0,43.7103604,-79.3987051,2409 Yonge St Toronto ON M4P 2E7 Canada,100.0
209853,2008,15,9 CHURCH ST,144,14400.0,PARK 3 M OF FIRE HYDRANT,15.0,43.6478315,-79.3732265,9 Church St Toronto ON M5E 1W1 Canada,100.0
206855,2008,15,417 SPADINA RD,144,14400.0,PARK 3 M OF FIRE HYDRANT,12.0,43.6888272,-79.4125071,417 Spadina Rd Toronto ON M5P 2W3 Canada,100.0
205612,2008,15,318 QUEEN ST W,142,14200.0,PARK 3 M OF FIRE HYDRANT,15.0,43.64937399999999,-79.3944037,318 Queen St W Toronto ON M5V 2A2 Canada,100.0
207761,2008,15,518 PALMERSTON BLVD,140,14000.0,PARK 3 M OF FIRE HYDRANT,15.0,43.66305430000001,-79.4133207,518 Palmerston Blvd Toronto ON M6G 2P3 Canada,100.0
210237,2008,15,BOROUGH DR,138,13800.0,PARK 3 M OF FIRE HYDRANT,10.0,43.7747957,-79.2609286,Borough Dr Toronto ON M1P Canada,100.0
202737,2008,15,171 KING ST E,136,13600.0,PARK 3 M OF FIRE HYDRANT,14.0,43.6504704,-79.3713977,171 King St E Toronto ON M5A 1J4 Canada,100.0
205360,2008,15,30 GLENDALE AVE,133,13300.0,PARK 3 M OF FIRE HYDRANT,14.0,43.6403938,-79.4514344,30 Glendale Ave Toronto ON M6R 2S7 Canada,100.0
206212,2008,15,36 WELLINGTON ST E,132,13200.0,PARK 3 M OF FIRE HYDRANT,15.0,43.6483453,-79.37512989999999,36 Wellington St E Toronto ON M5E Canada,100.0
204505,2008,15,25 BELLEVUE AVE,130,13000.0,PARK 3 M OF FIRE HYDRANT,13.0,43.6538637,-79.40305959999999,25 Bellevue Ave Toronto ON M5T 1K8 Canada,100.0
204109,2008,15,227 VICTORIA ST,127,12700.0,PARK 3 M OF FIRE HYDRANT,15.0,43.6553246,-79.3788385,227 Victoria St Toronto ON M5B 1T8 Canada,100.0
201440,2008,15,123 SUNNYSIDE AVE,125,12500.0,PARK 3 M OF FIRE HYDRANT,14.0,43.6419823,-79.4495242,123 Sunnyside Ave Toronto ON M6R 2P3 Canada,100.0
207670,2008,15,5050 YONGE ST,125,12500.0,PARK 3 M OF FIRE HYDRANT,14.0,43.7670456,-79.4134279,5050 Yonge St North York ON M2N 7H1 Canada,100.0
205149,2008,15,29 ELM ST,123,12300.0,PARK 3 M OF FIRE HYDRANT,16.0,43.6574038,-79.38310690000002,29 Elm St Toronto ON M5G 1H1 Canada,100.0
201590,2008,15,13 ELM ST,123,12300.0,PARK 3 M OF FIRE HYDRANT,15.0,43.657548,-79.38234349999999,13 Elm St Toronto ON M5G 1H1 Canada,100.0
210158,2008,15,99 ATLANTIC AVE,121,12100.0,PARK 3 M OF FIRE HYDRANT,13.0,43.6390371,-79.42022349999999,99 Atlantic Ave Toronto ON M6K 3J8 Canada,100.0
206099,2008,15,35 WELLINGTON ST E,121,12100.0,PARK 3 M OF FIRE HYDRANT,17.0,43.64812269999999,-79.3752092,35 Wellington St E Toronto ON M5E 1C6 Canada,100.0
203318,2008,15,2 ARUNDEL AVE,121,12100.0,PARK 3 M OF FIRE HYDRANT,17.0,43.678175,-79.3510826,2 Arundel Ave Toronto ON M4K 3A2 Canada,100.0
202687,2008,15,17 PRINCE ARTHUR AVE,115,11500.0,PARK 3 M OF FIRE HYDRANT,15.0,43.6694988,-79.39592929999999,17 Prince Arthur Ave Toronto ON M5R 1B2 Canada,100.0
208888,2008,15,682 COLLEGE ST,113,11300.0,PARK 3 M OF FIRE HYDRANT,16.0,43.65525969999999,-79.4173521,682 College St Toronto ON M6G 1C1 Canada,100.0
207031,2008,15,44 BALLIOL ST,111,11100.0,PARK 3 M OF FIRE HYDRANT,13.0,43.69796669999999,-79.39507789999999,44 Balliol St Toronto ON M4S 1C1 Canada,100.0
209332,2008,15,777 JARVIS ST,109,10900.0,PARK 3 M OF FIRE HYDRANT,12.0,43.6699843,-79.3799006,777 Jarvis St Toronto ON M4Y Canada,100.0
209913,2008,15,90 KIPPENDAVIE AVE,108,10800.0,PARK 3 M OF FIRE HYDRANT,16.0,43.6683146,-79.30411389999999,90 Kippendavie Ave Toronto ON M4L 3R5 Canada,100.0
210192,2008,15,ALBERT ST,104,10400.0,PARK 3 M OF FIRE HYDRANT,13.0,43.6532393,-79.38133409999999,Albert St Toronto ON Canada,100.0
207686,2008,15,51 ALEXANDER ST,101,10100.0,PARK 3 M OF FIRE HYDRANT,16.0,43.6629419,-79.3812645,51 Alexander St Toronto ON M4Y 1B2 Canada,100.0
204279,2008,15,2364 YONGE ST,101,10100.0,PARK 3 M OF FIRE HYDRANT,14.0,43.7086903,-79.3990274,2364 Yonge St Toronto ON M4P 2E6 Canada,100.0
208657,2008,15,643 MOUNT PLEASANT RD,100,10000.0,PARK 3 M OF FIRE HYDRANT,16.0,43.7049159,-79.38876540000001,643 Mt Pleasant Rd Toronto ON M4S 2M9 Canada,100.0
209659,2008,15,840 COXWELL AVE,100,10000.0,PARK 3 M OF FIRE HYDRANT,12.0,43.6900163,-79.3271038,840 Coxwell Ave East York ON M4C 5T2 Canada,100.0
205219,2008,15,293 SPADINA AVE,97,9700.0,PARK 3 M OF FIRE HYDRANT,16.0,43.653623,-79.3977756,293 Spadina Ave Toronto ON M5T 2E6 Canada,100.0
207648,2008,15,5000 YONGE ST,97,9700.0,PARK 3 M OF FIRE HYDRANT,15.0,43.7662143,-79.4128728,5000 Yonge St North York ON M2N Canada,100.0
208880,2008,15,680 COLLEGE ST,97,9700.0,PARK 3 M OF FIRE HYDRANT,16.0,43.6554407,-79.4173502,680 College St Toronto ON M6G 1C1 Canada,100.0
207468,2008,15,4910 YONGE ST,95,9500.0,PARK 3 M OF FIRE HYDRANT,14.0,43.7640535,-79.4120547,4910 Yonge St North York ON M2N Canada,100.0
210479,2008,15,MORTIMER AVE,91,9100.0,PARK 3 M OF FIRE HYDRANT,13.0,43.6884328,-79.3364359,Mortimer Ave Toronto ON Canada,100.0
205191,2008,15,290 QUEEN ST W,89,8900.0,PARK 3 M OF FIRE HYDRANT,15.0,43.6497036,-79.39305739999999,290 Queen St W Toronto ON M5V 2A1 Canada,100.0
206038,2008,15,345 DANFORTH AVE,89,8900.0,PARK 3 M OF FIRE HYDRANT,15.0,43.6771974,-79.35315,345 Danforth Ave Toronto ON M4K 1N7 Canada,100.0
205605,2008,15,317 LONSDALE RD,88,8800.0,PARK 3 M OF FIRE HYDRANT,13.0,43.6887959,-79.4114379,317 Lonsdale Rd Toronto ON M4V 1X3 Canada,100.0
206301,2008,15,37 PRINCE ARTHUR AVE,88,8800.0,PARK 3 M OF FIRE HYDRANT,14.0,43.66923999999999,-79.39720419999999,37 Prince Arthur Ave Toronto ON M5R 1B2 Canada,100.0
209657,2008,15,84 YORKVILLE AVE,88,8800.0,PARK 3 M OF FIRE HYDRANT,14.0,43.6711713,-79.391593,84 Yorkville Ave Toronto ON M5R 1B9 Canada,100.0
206612,2008,15,40 ASQUITH AVE,87,8700.0,PARK 3 M OF FIRE HYDRANT,13.0,43.671974,-79.38507349999999,40 Asquith Ave Toronto ON M4W 3W7 Canada,100.0
209020,2008,15,70 MILL ST,86,8600.0,PARK 3 M OF FIRE HYDRANT,16.0,43.65105459999999,-79.3590608,70 Mill St Toronto ON M5A 4R1 Canada,100.0
206854,2008,15,417 SPADINA AVE,86,8600.0,PARK 3 M OF FIRE HYDRANT,14.0,43.6570395,-79.3994077,417 Spadina Ave Toronto ON M5T 2G6 Canada,100.0
202097,2008,15,15 BREADALBANE ST,85,8500.0,PARK 3 M OF FIRE HYDRANT,14.0,43.6636416,-79.3850222,15 Breadalbane St Toronto ON M4Y 1C2 Canada,100.0
202902,2008,15,18 LOLA RD,84,8400.0,PARK 3 M OF FIRE HYDRANT,16.0,43.7017776,-79.3979331,18 Lola Rd Toronto ON M5P 1E4 Canada,100.0
208407,2008,15,60 FENWICK AVE,83,8300.0,PARK 3 M OF FIRE HYDRANT,15.0,43.6778455,-79.34845349999999,60 Fenwick Ave Toronto ON M4K 3H3 Canada,100.0
205794,2008,15,33 ELM ST,83,8300.0,PARK 3 M OF FIRE HYDRANT,15.0,43.6574601,-79.3833344,33 Elm St Toronto ON M5G 1H1 Canada,100.0
204431,2008,15,2430 YONGE ST,83,8300.0,PARK 3 M OF FIRE HYDRANT,14.0,43.7102988,-79.3993172,2430 Yonge St Toronto ON M4P 2H4 Canada,100.0
200953,2008,15,11 SELBY ST,82,8200.0,PARK 3 M OF FIRE HYDRANT,14.0,43.6711063,-79.3777257,11 Selby St Toronto ON M4Y 1W3 Canada,100.0
207526,2008,15,5 EVERSON DR,82,8200.0,PARK 3 M OF FIRE HYDRANT,17.0,43.75740769999999,-79.40685330000001,5 Everson Dr North York ON M2N 7C3 Canada,100.0
202114,2008,15,15 DORIS AVE,76,7600.0,PARK 3 M OF FIRE HYDRANT,14.0,43.7626563,-79.40841259999999,15 Doris Ave North York ON M2N 5X9 Canada,100.0
200822,2008,15,107 HARBORD ST,76,7600.0,PARK 3 M OF FIRE HYDRANT,18.0,43.662448,-79.40420999999999,107 Harbord St Toronto ON M5S 1G7 Canada,100.0
205203,2008,15,291 SPADINA AVE,76,7600.0,PARK 3 M OF FIRE HYDRANT,13.0,43.65348849999999,-79.39777620000001,291 Spadina Ave Toronto ON M5T 2E6 Canada,100.0
204337,2008,15,24 FERNDALE AVE,75,7500.0,PARK 3 M OF FIRE HYDRANT,12.0,43.6896049,-79.3921927,24 Ferndale Ave Toronto ON M4T 2B3 Canada,100.0
205362,2008,15,30 GRAND TRUNK CRES,74,7400.0,PARK 3 M OF FIRE HYDRANT,13.0,43.6422691,-79.3828039,30 Grand Trunk Crescent Toronto ON M5J 3A3 Canada,100.0
206842,2008,15,415 QUEEN ST W,72,7200.0,PARK 3 M OF FIRE HYDRANT,14.0,43.6488899,-79.3949775,415 Queen St W Toronto ON M5V 2A5 Canada,100.0
206450,2008,15,387 QUEEN ST W,71,7100.0,PARK 3 M OF FIRE HYDRANT,15.0,43.6490541,-79.39417920000001,387 Queen St W Toronto ON M5V 2A5 Canada,100.0
206922,2008,15,421 DANFORTH AVE,70,7000.0,PARK 3 M OF FIRE HYDRANT,16.0,43.6775893,-79.3510818,421 Danforth Ave Toronto ON M4K 1P1 Canada,100.0
204972,2008,15,275 BLEECKER ST,70,7000.0,PARK 3 M OF FIRE HYDRANT,16.0,43.6687541,-79.37355960000001,275 Bleecker St Toronto ON M4X 1M1 Canada,100.0
205412,2008,15,30 WELLINGTON ST E,69,6900.0,PARK 3 M OF FIRE HYDRANT,16.0,43.6487142,-79.3755403,30 Wellington St E Toronto ON M5E 1S3 Canada,100.0
205269,2008,15,299 SPADINA AVE,69,6900.0,PARK 3 M OF FIRE HYDRANT,15.0,43.6536337,-79.3978762,299 Spadina Ave Toronto ON M5T 2E6 Canada,100.0
208547,2008,15,62 VILLIERS ST,68,6800.0,PARK 3 M OF FIRE HYDRANT,9.0,43.6480761,-79.3516257,62 Villiers St Toronto ON M5A 1B1 Canada,100.0
209203,2008,15,74 WILLCOCKS ST,68,6800.0,PARK 3 M OF FIRE HYDRANT,17.0,43.6613459,-79.40212939999999,74 Willcocks St Toronto ON M5S 1C8 Canada,100.0
204759,2008,15,26 LOMBARD ST,68,6800.0,PARK 3 M OF FIRE HYDRANT,14.0,43.65172159999999,-79.37663429999999,26 Lombard St Toronto ON M5C 1M1 Canada,100.0
204281,2008,15,2368 YONGE ST,67,6700.0,PARK 3 M OF FIRE HYDRANT,15.0,43.7088005,-79.39898219999999,2368 Yonge St Toronto ON M4P 2E6 Canada,100.0
200912,2008,15,11 CLARENDON AVE,67,6700.0,PARK 3 M OF FIRE HYDRANT,15.0,43.6831062,-79.4012374,11 Clarendon Ave Toronto ON M4V 1H8 Canada,100.0
201052,2008,15,112 GEORGE ST S,66,6600.0,PARK 3 M OF FIRE HYDRANT,13.0,43.6491751,-79.37030109999999,112 George St S Toronto ON M5A 4P8 Canada,100.0
205442,2008,15,3000 DANFORTH AVE,65,6500.0,PARK 3 M OF FIRE HYDRANT,19.0,43.6907909,-79.2912662,3000 Danforth Ave East York ON M4C 1M7 Canada,100.0
206971,2008,15,43 FRONT ST E,65,6500.0,PARK 3 M OF FIRE HYDRANT,15.0,43.6479156,-79.3745495,43 Front St E Toronto ON M5E 1B3 Canada,100.0
204161,2008,15,23 JORDAN ST,64,6400.0,PARK 3 M OF FIRE HYDRANT,12.0,43.6483629,-79.3785777,23 Jordan St Toronto ON M5L 2A1 Canada,100.0
206769,2008,15,41 FRONT ST E,63,6300.0,PARK 3 M OF FIRE HYDRANT,15.0,43.6478101,-79.3746036,41 Front St E Toronto ON M5E 1B3 Canada,100.0
206494,2008,15,39 SUNNYSIDE AVE,62,6200.0,PARK 3 M OF FIRE HYDRANT,13.0,43.6402712,-79.4487814,39 Sunnyside Ave Toronto ON M6R 2N9 Canada,100.0
210344,2008,15,FAIRLAWN AVE,62,6200.0,PARK 3 M OF FIRE HYDRANT,13.0,43.7280099,-79.4173315,Fairlawn Ave Toronto ON Canada,100.0
205838,2008,15,33 WILLCOCKS ST,61,6100.0,PARK 3 M OF FIRE HYDRANT,17.0,43.6614454,-79.4000863,33 Willcocks St Toronto ON M5S Canada,100.0
208028,2008,15,55 YORK ST,61,6100.0,PARK 3 M OF FIRE HYDRANT,12.0,43.6462314,-79.3824494,55 York St Toronto ON M5J 1R7 Canada,100.0
205831,2008,15,33 SUNNYSIDE AVE,61,6100.0,PARK 3 M OF FIRE HYDRANT,13.0,43.639795,-79.4487554,33 Sunnyside Ave Toronto ON M6R Canada,100.0
206856,2008,15,418 EGLINTON AVE W,60,6000.0,PARK 3 M OF FIRE HYDRANT,13.0,43.7042857,-79.4110623,418 Eglinton Ave W Toronto ON M5N 1A2 Canada,100.0
201773,2008,15,137 EDWARD ST,60,6000.0,PARK 3 M OF FIRE HYDRANT,12.0,43.65547249999999,-79.38787359999999,137 Edward St Toronto ON M5G 2P1 Canada,100.0
209534,2008,15,801 QUEEN ST W,60,6000.0,PARK 3 M OF FIRE HYDRANT,16.0,43.6461516,-79.40874409999999,801 Queen St W Toronto ON M6J 1G1 Canada,100.0
205300,2008,15,3 EVERSON DR,59,5900.0,PARK 3 M OF FIRE HYDRANT,16.0,43.757153,-79.4065529,3 Everson Dr North York ON M2N 7C2 Canada,100.0
208213,2008,15,58 MARINE PARADE DR,59,5900.0,PARK 3 M OF FIRE HYDRANT,16.0,43.6273029,-79.4768643,58 Marine Parade Dr Etobicoke ON M8V 4G1 Canada,100.0
207426,2008,15,49 BELLEVUE AVE,57,5700.0,PARK 3 M OF FIRE HYDRANT,12.0,43.65466079999999,-79.4034278,49 Bellevue Ave Toronto ON M5T 2N5 Canada,100.0
205600,2008,15,316 QUEEN ST W,57,5700.0,PARK 3 M OF FIRE HYDRANT,15.0,43.6494615,-79.394306,316 Queen St W Toronto ON M5V Canada,100.0
209546,2008,15,81 FRONT ST E,56,5600.0,PARK 3 M OF FIRE HYDRANT,14.0,43.6487275,-79.3725058,81 Front St E Toronto ON M5E 1B8 Canada,100.0
202986,2008,15,182 SPADINA AVE,56,5600.0,PARK 3 M OF FIRE HYDRANT,15.0,43.6495294,-79.3969706,182 Spadina Ave Toronto ON M5T 2C2 Canada,100.0
202739,2008,15,171 SPADINA AVE,56,5600.0,PARK 3 M OF FIRE HYDRANT,13.0,43.6492957,-79.3963309,171 Spadina Ave Toronto ON M5T 2C3 Canada,100.0
204560,2008,15,25 RICHVIEW RD,56,5600.0,PARK 3 M OF FIRE HYDRANT,12.0,43.6850263,-79.5145914,25 Richview Rd Etobicoke ON M9A Canada,100.0
200990,2008,15,110 LOMBARD ST,55,5500.0,PARK 3 M OF FIRE HYDRANT,13.0,43.6524478,-79.37333009999999,110 Lombard St Toronto ON M5C 1M3 Canada,100.0
205853,2008,15,330 UNIVERSITY AVE,55,5500.0,PARK 3 M OF FIRE HYDRANT,12.0,43.6516649,-79.38759680000001,Canada Life Building 330 University Ave Toronto ON M5G Canada,100.0
209941,2008,15,91 BELLEVUE AVE,55,5500.0,PARK 3 M OF FIRE HYDRANT,12.0,43.6562553,-79.4037584,91 Bellevue Ave Toronto ON M5T 2N8 Canada,100.0
202532,2008,15,163 GALLEY AVE,55,5500.0,PARK 3 M OF FIRE HYDRANT,13.0,43.6425511,-79.44838949999999,163 Galley Ave Toronto ON M6R 1H3 Canada,100.0
204301,2008,15,238 QUEEN ST W,55,5500.0,PARK 3 M OF FIRE HYDRANT,14.0,43.6501306,-79.39041189999999,238 Queen St W Toronto ON M5V 1Z7 Canada,100.0
205194,2008,15,290 RUSHTON RD,55,5500.0,PARK 3 M OF FIRE HYDRANT,16.0,43.681933,-79.4279595,290 Rushton Rd Toronto ON M6C 2X7 Canada,100.0
210166,2008,15,99 GLENDALE AVE,55,5500.0,PARK 3 M OF FIRE HYDRANT,13.0,43.6418381,-79.4506114,99 Glendale Ave Toronto ON M6R 2T3 Canada,100.0
204742,2008,15,26 FERNDALE AVE,55,5500.0,PARK 3 M OF FIRE HYDRANT,12.0,43.6896999,-79.3922276,26 Ferndale Ave Toronto ON M4T 2B3 Canada,100.0
209931,2008,15,90 YORK ST,54,5400.0,PARK 3 M OF FIRE HYDRANT,12.0,43.6477764,-79.3834833,90 York St Toronto ON M5H Canada,100.0
203048,2008,15,186 SPADINA AVE,53,5300.0,PARK 3 M OF FIRE HYDRANT,15.0,43.6497875,-79.3970569,186 Spadina Ave Toronto ON M5T 3B2 Canada,100.0
201140,2008,15,115 SAULTER ST S,53,5300.0,PARK 3 M OF FIRE HYDRANT,12.0,43.6510198,-79.3430764,115 Saulter St S Toronto ON M4M 3K8 Canada,100.0
203266,2008,15,197 KING ST E,52,5200.0,PARK 3 M OF FIRE HYDRANT,14.0,43.6508166,-79.3699949,197 King St E Toronto ON M5A 1J5 Canada,100.0
207523,2008,15,5 DUFRESNE CRT,52,5200.0,PARK 3 M OF FIRE HYDRANT,18.0,43.7150514,-79.3306688,5 Dufresne Ct Toronto ON M3C Canada,100.0
202909,2008,15,18 ORDE ST,52,5200.0,PARK 3 M OF FIRE HYDRANT,12.0,43.65832169999999,-79.3920484,18 Orde St Toronto ON M5T 1N7 Canada,100.0
207971,2008,15,5460 YONGE ST,52,5200.0,PARK 3 M OF FIRE HYDRANT,15.0,43.7773432,-79.4154674,5460 Yonge St North York ON M2N 6K7 Canada,100.0
209620,2008,15,83 LILLIAN ST,52,5200.0,PARK 3 M OF FIRE HYDRANT,14.0,43.7067968,-79.39363159999999,83 Lillian St Toronto ON M4S 2H7 Canada,100.0
201623,2008,15,130 GOWAN AVE,51,5100.0,PARK 3 M OF FIRE HYDRANT,16.0,43.6884461,-79.3500019,130 Gowan Ave East York ON M4K 2E3 Canada,100.0
205420,2008,15,300 BOROUGH DR,51,5100.0,PARK 3 M OF FIRE HYDRANT,12.0,43.7764253,-79.2585331,300 Borough Dr Toronto ON M1P 4P5 Canada,100.0
204638,2008,15,2532 YONGE ST,50,5000.0,PARK 3 M OF FIRE HYDRANT,14.0,43.7128032,-79.3999369,2532 Yonge St Toronto ON M4P 2H7 Canada,100.0
202196,2008,15,150 FRONT ST E,50,5000.0,PARK 3 M OF FIRE HYDRANT,14.0,43.6503277,-79.3686888,150 Front St E Toronto ON M5A 1E5 Canada,100.0
204472,2008,15,2470 YONGE ST,50,5000.0,PARK 3 M OF FIRE HYDRANT,14.0,43.7113371,-79.3996105,2470 Yonge St Toronto ON M4P 2H5 Canada,100.0
210064,2008,15,95 THE ESPLANADE,49,4900.0,PARK 3 M OF FIRE HYDRANT,15.0,43.6472933,-79.3728805,95 The Esplanade Toronto ON M5E 1Y8 Canada,100.0
202110,2008,15,15 DEVONSHIRE PL,49,4900.0,PARK 3 M OF FIRE HYDRANT,16.0,43.6655774,-79.3973432,15 Devonshire Pl Toronto ON M5S 2C8 Canada,100.0
201300,2008,15,12 MANOR RD W,49,4900.0,PARK 3 M OF FIRE HYDRANT,15.0,43.7025762,-79.3979578,12 Manor Rd W Toronto ON M4S 2A5 Canada,100.0
203499,2008,15,20 EDWARD ST,49,4900.0,PARK 3 M OF FIRE HYDRANT,16.0,43.65696699999999,-79.382122,20 Edward St Toronto ON M5G 1C9 Canada,100.0
205135,2008,15,289 SPADINA AVE,48,4800.0,PARK 3 M OF FIRE HYDRANT,15.0,43.6533547,-79.3977508,289 Spadina Ave Toronto ON M5T 2E6 Canada,100.0
205125,2008,15,288 QUEEN ST W,48,4800.0,PARK 3 M OF FIRE HYDRANT,15.0,43.649705,-79.3928756,288 Queen St W Toronto ON M5V 2A4 Canada,100.0
205257,2008,15,2970 DANFORTH AVE,47,4700.0,PARK 3 M OF FIRE HYDRANT,18.0,43.6905128,-79.29213969999999,2970 Danforth Ave East York ON M4C 1M6 Canada,100.0
201808,2008,15,139 WOODWARD AVE,47,4700.0,PARK 3 M OF FIRE HYDRANT,13.0,43.70973480000001,-79.50714769999999,139 Woodward Ave York ON M9N 2J4 Canada,100.0
208465,2008,15,604 DANFORTH AVE,47,4700.0,PARK 3 M OF FIRE HYDRANT,14.0,43.6788631,-79.3463438,604 Danforth Ave Toronto ON M4K 1R1 Canada,100.0
203822,2008,15,214 MC CAUL ST,47,4700.0,PARK 3 M OF FIRE HYDRANT,13.0,43.6574136,-79.3930747,214 McCaul St Toronto ON M5T 1W5 Canada,100.0
207640,2008,15,500 MURRAY ROSS PKWY,46,4600.0,PARK 3 M OF FIRE HYDRANT,14.0,43.7641767,-79.50581079999999,500 Murray Ross Pkwy North York ON M3J 2Z3 Canada,100.0
201873,2008,15,14 SHEPPARD ST,46,4600.0,PARK 3 M OF FIRE HYDRANT,14.0,43.6499537,-79.3822804,14 Sheppard St Toronto ON M5H Canada,100.0
201690,2008,15,133 DANFORTH AVE,46,4600.0,PARK 3 M OF FIRE HYDRANT,16.0,43.6763133,-79.3575891,133 Danforth Ave Toronto ON M4K 1N2 Canada,100.0
204698,2008,15,2584 YONGE ST,46,4600.0,PARK 3 M OF FIRE HYDRANT,14.0,43.7143095,-79.400103,2584 Yonge St Toronto ON M4P 2J3 Canada,100.0
205347,2008,15,30 DEWHURST BLVD,46,4600.0,PARK 3 M OF FIRE HYDRANT,13.0,43.6808752,-79.3401006,30 Dewhurst Blvd Toronto ON M4J 3H9 Canada,100.0
202998,2008,15,1835 YONGE ST,46,4600.0,PARK 3 M OF FIRE HYDRANT,13.0,43.6967221,-79.39577539999999,1835 Yonge St Toronto ON M4S 1X8 Canada,100.0
208314,2008,15,6 BOYLEN ST,45,4500.0,PARK 3 M OF FIRE HYDRANT,14.0,43.7100069,-79.5078671,6 Boylen St North York ON M9N 2X4 Canada,100.0
207297,2008,15,47 FENWICK AVE,45,4500.0,PARK 3 M OF FIRE HYDRANT,16.0,43.6778361,-79.3480706,47 Fenwick Ave Toronto ON M4K 3H2 Canada,100.0
201831,2008,15,14 CLARENCE SQ,45,4500.0,PARK 3 M OF FIRE HYDRANT,14.0,43.644666,-79.3934005,14 Clarence Square Toronto ON M5V 1H1 Canada,100.0
201029,2008,15,111 VICTORIA ST,45,4500.0,PARK 3 M OF FIRE HYDRANT,12.0,43.6523946,-79.3778255,111 Victoria St Toronto ON M5C 2M6 Canada,100.0
209123,2008,15,720 KING ST W,45,4500.0,PARK 3 M OF FIRE HYDRANT,14.0,43.6439189,-79.4041711,720 King St W Toronto ON M5V Canada,100.0
203849,2008,15,215 WRIGHT AVE,44,4400.0,PARK 3 M OF FIRE HYDRANT,13.0,43.700746,-79.5035032,215 Wright Ave Toronto ON M9N 3T3 Canada,100.0
204503,2008,15,25 BEDFORD RD,44,4400.0,PARK 3 M OF FIRE HYDRANT,14.0,43.6700124,-79.3977139,25 Bedford Rd Toronto ON M5R 2K1 Canada,100.0
207489,2008,15,4950 YONGE ST,44,4400.0,PARK 3 M OF FIRE HYDRANT,13.0,43.7648382,-79.41270899999999,4950 Yonge St Toronto ON M2N 6K1 Canada,100.0
205982,2008,15,34 LITTLE NORWAY CRES,43,4300.0,PARK 3 M OF FIRE HYDRANT,15.0,43.6340934,-79.3990731,34 Little Norway Crescent Toronto ON M5V 3A3 Canada,100.0
201076,2008,15,113 HAZELTON AVE,43,4300.0,PARK 3 M OF FIRE HYDRANT,14.0,43.6742259,-79.3942977,113 Hazelton Ave Toronto ON M5R 2E4 Canada,100.0
203581,2008,15,200 CHURCH ST,43,4300.0,PARK 3 M OF FIRE HYDRANT,14.0,43.6548942,-79.3774545,200 Church St Toronto ON M5B 1X5 Canada,100.0
203051,2008,15,1862 QUEEN ST E,43,4300.0,PARK 3 M OF FIRE HYDRANT,15.0,43.6687011,-79.3071652,1862 Queen St E Toronto ON M4L 1H1 Canada,100.0
208890,2008,15,682a COLLEGE ST,43,4300.0,PARK 3 M OF FIRE HYDRANT,16.0,43.65525969999999,-79.4173521,682 College St Toronto ON M6G 1C1 Canada,100.0
209694,2008,15,85 HAZELTON AVE,42,4200.0,PARK 3 M OF FIRE HYDRANT,14.0,43.6733896,-79.3939517,85 Hazelton Ave Toronto ON M5R 2E4 Canada,100.0
202578,2008,15,165 SPADINA AVE,42,4200.0,PARK 3 M OF FIRE HYDRANT,15.0,43.6490977,-79.39625319999999,165 Spadina Ave Toronto ON M5T 2C4 Canada,100.0
209277,2008,15,76 PEARL ST,42,4200.0,PARK 3 M OF FIRE HYDRANT,13.0,43.6485365,-79.38395129999999,76 Pearl St Toronto ON M5H Canada,100.0
202842,2008,15,179 DANFORTH AVE,42,4200.0,PARK 3 M OF FIRE HYDRANT,13.0,43.6764606,-79.35643259999999,179 Danforth Ave Toronto ON M4K 1N2 Canada,100.0
203720,2008,15,21 BERNARD AVE,41,4100.0,PARK 3 M OF FIRE HYDRANT,15.0,43.6736599,-79.3975293,21 Bernard Ave Toronto ON M5R 1R3 Canada,100.0
209271,2008,15,76 GRENVILLE ST,41,4100.0,PARK 3 M OF FIRE HYDRANT,12.0,43.6616205,-79.3876365,76 Grenville St Toronto ON M5S 1B2 Canada,100.0
203394,2008,15,2 MARKET ST,41,4100.0,PARK 3 M OF FIRE HYDRANT,13.0,43.6471765,-79.3713774,2 Market St Toronto ON M5E 1Y9 Canada,100.0
207989,2008,15,55 CENTRE AVE,41,4100.0,PARK 3 M OF FIRE HYDRANT,10.0,43.6545873,-79.38665569999999,55 Centre Ave Toronto ON M5G 2H5 Canada,100.0
201323,2008,15,12 TEMPERANCE ST,41,4100.0,PARK 3 M OF FIRE HYDRANT,14.0,43.651107,-79.3795729,12 Temperance St Toronto ON M5H 1Y4 Canada,100.0
204203,2008,15,2300 YONGE ST,40,4000.0,PARK 3 M OF FIRE HYDRANT,14.0,43.7072717,-79.3995546,2300 Yonge St Toronto ON M4P 1E4 Canada,100.0
208280,2008,15,592 MARKHAM ST,40,4000.0,PARK 3 M OF FIRE HYDRANT,15.0,43.6638358,-79.41221469999999,592 Markham St Toronto ON M6G 2L8 Canada,100.0
207337,2008,15,476 DUNDAS ST W,40,4000.0,PARK 3 M OF FIRE HYDRANT,15.0,43.6533156,-79.396884,476 Dundas St W Toronto ON M5T 1G9 Canada,100.0
208987,2008,15,7 ROCHEFORT DR,40,4000.0,PARK 3 M OF FIRE HYDRANT,14.0,43.718064,-79.3370936,7 Rochefort Dr North York ON M3C 1H4 Canada,100.0
210420,2008,15,JAMES ST,39,3900.0,PARK 3 M OF FIRE HYDRANT,12.0,43.653203,-79.38113899999999,James St Toronto ON Canada,100.0
201028,2008,15,111 SUNNYSIDE AVE,39,3900.0,PARK 3 M OF FIRE HYDRANT,13.0,43.6411797,-79.4491674,111 Sunnyside Ave Toronto ON M6R 2P1 Canada,100.0
202404,2008,15,1593 BAYVIEW AVE,39,3900.0,PARK 3 M OF FIRE HYDRANT,15.0,43.7060789,-79.3751145,1593 Bayview Ave East York ON M4G 3B5 Canada,100.0
210042,2008,15,95 BERKELEY ST,39,3900.0,PARK 3 M OF FIRE HYDRANT,14.0,43.6535687,-79.3647276,95 Berkeley St Toronto ON M5A 2W8 Canada,100.0
203093,2008,15,19 CLINTON ST,39,3900.0,PARK 3 M OF FIRE HYDRANT,17.0,43.6543946,-79.4135737,19 Clinton St Toronto ON M6J 2P1 Canada,100.0
205683,2008,15,32 WELLINGTON ST E,39,3900.0,PARK 3 M OF FIRE HYDRANT,14.0,43.6483205,-79.375238,32 Wellington St E Toronto ON M5E Canada,100.0
206384,2008,15,38 ORCHARD VIEW BLVD,39,3900.0,PARK 3 M OF FIRE HYDRANT,17.0,43.7082651,-79.39959929999999,38 Orchard View Blvd Toronto ON M4P 2W7 Canada,100.0
204700,2008,15,2586 YONGE ST,39,3900.0,PARK 3 M OF FIRE HYDRANT,14.0,43.7143124,-79.4002801,2586 Yonge St Toronto ON M4P 2J3 Canada,100.0
201080,2008,15,113 PICKERING ST,38,3800.0,PARK 3 M OF FIRE HYDRANT,15.0,43.6827826,-79.29079159999999,113 Pickering St Toronto ON M4E 3J5 Canada,100.0
206338,2008,15,375 COOK RD,38,3800.0,PARK 3 M OF FIRE HYDRANT,14.0,43.7666481,-79.5023698,375 Cook Rd North York ON M3J 3T6 Canada,100.0
208253,2008,15,59 CATARAQUI CRES,38,3800.0,PARK 3 M OF FIRE HYDRANT,9.0,43.702003,-79.2788958,59 Cataraqui Crescent Scarborough ON M1L 1N7 Canada,100.0
207462,2008,15,4900 YONGE ST,38,3800.0,PARK 3 M OF FIRE HYDRANT,15.0,43.7633623,-79.41291609999999,Joseph Shepard Building 4900 Yonge St North York ON M2N Canada,100.0
200986,2008,15,110 GEORGE ST S,38,3800.0,PARK 3 M OF FIRE HYDRANT,15.0,43.6490117,-79.3702352,110 George St S Toronto ON M5A 4P9 Canada,100.0
203347,2008,15,2 COOPER ST,38,3800.0,PARK 3 M OF FIRE HYDRANT,9.0,43.6430005,-79.3725505,2 Cooper St Toronto ON M5E 1L7 Canada,100.0
203434,2008,15,2 TEMPERANCE ST,37,3700.0,PARK 3 M OF FIRE HYDRANT,12.0,43.6510848,-79.37912290000001,2 Temperance St Toronto ON M5C 1X6 Canada,100.0
200353,2008,15,1 ALBERT ST,37,3700.0,PARK 3 M OF FIRE HYDRANT,11.0,43.8072383,-79.3027651,1 Royal Albert Crescent Scarborough ON M1V 3B1 Canada,100.0
203129,2008,15,19 PRINCESS ST,37,3700.0,PARK 3 M OF FIRE HYDRANT,15.0,43.6485886,-79.3656768,19 Princess St Toronto ON M5A 4C8 Canada,100.0
206192,2008,15,36 HELENDALE AVE,37,3700.0,PARK 3 M OF FIRE HYDRANT,16.0,43.7089722,-79.40015919999999,36 Helendale Ave Toronto ON M4R 1C4 Canada,100.0
210519,2008,15,PRINCESS ST,37,3700.0,PARK 3 M OF FIRE HYDRANT,16.0,43.6502234,-79.3664873,Princess St Toronto ON M5A Canada,100.0
209045,2008,15,70 YORK ST,36,3600.0,PARK 3 M OF FIRE HYDRANT,12.0,43.6468166,-79.3834392,70 York St Toronto ON M5H 1J8 Canada,100.0
208410,2008,15,60 GLENDALE AVE,36,3600.0,PARK 3 M OF FIRE HYDRANT,14.0,43.6410635,-79.4514447,60 Glendale Ave Toronto ON M6R 2S8 Canada,100.0
201910,2008,15,141 ISABELLA ST,36,3600.0,PARK 3 M OF FIRE HYDRANT,11.0,43.6692661,-79.3765963,141 Isabella St Toronto ON M4Y 1P3 Canada,100.0
207754,2008,15,518 DANFORTH AVE,36,3600.0,PARK 3 M OF FIRE HYDRANT,14.0,43.6783732,-79.3485046,518 Danforth Ave Toronto ON M4K 1P7 Canada,100.0
210639,2008,15,YONGE ST,36,3600.0,PARK 3 M OF FIRE HYDRANT,16.0,43.71929,-79.4010273,Yonge St Toronto ON Canada,100.0
209305,2008,15,77 GRENVILLE ST,36,3600.0,PARK 3 M OF FIRE HYDRANT,12.0,43.66128579999999,-79.3868145,77 Grenville St Toronto ON M5S 1B1 Canada,100.0
209602,2008,15,822 PALMERSTON AVE,36,3600.0,PARK 3 M OF FIRE HYDRANT,9.0,43.67082569999999,-79.41621010000001,822 Palmerston Ave Toronto ON M6G 2R9 Canada,100.0
207170,2008,15,45 SHEPPARD ST,35,3500.0,PARK 3 M OF FIRE HYDRANT,14.0,43.6503789,-79.3824013,45 Sheppard St Toronto ON M5H 4E8 Canada,100.0
201347,2008,15,120 INDIAN RD,35,3500.0,PARK 3 M OF FIRE HYDRANT,12.0,43.6434672,-79.453385,120 Indian Rd Toronto ON M6R 2V4 Canada,100.0
207579,2008,15,50 COSBURN AVE,35,3500.0,PARK 3 M OF FIRE HYDRANT,13.0,43.6890854,-79.3518588,50 Cosburn Ave East York ON M4K 2G5 Canada,100.0
202488,2008,15,160 FREDERICK ST,35,3500.0,PARK 3 M OF FIRE HYDRANT,12.0,43.6501492,-79.3691087,160 Frederick St Toronto ON M5A 1E2 Canada,100.0
209258,2008,15,76 ADELAIDE ST W,35,3500.0,PARK 3 M OF FIRE HYDRANT,11.0,43.6498405,-79.38154329999999,76 Adelaide St W Toronto ON M5H 4A6 Canada,100.0
203064,2008,15,188 BONIS AVE,35,3500.0,PARK 3 M OF FIRE HYDRANT,17.0,43.7863797,-79.2915349,188 Bonis Ave Scarborough ON M1T 3W3 Canada,100.0
209500,2008,15,80 GROSVENOR ST,35,3500.0,PARK 3 M OF FIRE HYDRANT,12.0,43.6622332,-79.3885212,80 Grosvenor St Toronto ON M7A 1E9 Canada,100.0
205680,2008,15,32 STEWART ST,35,3500.0,PARK 3 M OF FIRE HYDRANT,11.0,43.643567,-79.401032,32 Stewart St Toronto ON M5V 1H6 Canada,100.0
206951,2008,15,427 DANFORTH AVE,35,3500.0,PARK 3 M OF FIRE HYDRANT,15.0,43.6776276,-79.3509298,427 Danforth Ave Toronto ON M4K 1P1 Canada,100.0
202911,2008,15,18 PANORAMA CRT,35,3500.0,PARK 3 M OF FIRE HYDRANT,11.0,43.7471567,-79.5821323,18 Panorama Ct Toronto ON M9V Canada,100.0
205341,2008,15,30 CARLTON ST,34,3400.0,PARK 3 M OF FIRE HYDRANT,13.0,43.6617263,-79.3811989,30 Carlton St Toronto ON M5B 2E9 Canada,100.0
208049,2008,15,5523 YONGE ST,34,3400.0,PARK 3 M OF FIRE HYDRANT,15.0,43.7784072,-79.4149406,5523 Yonge St North York ON M2N 5S3 Canada,100.0
208021,2008,15,55 TOWN CENTRE CRT,34,3400.0,PARK 3 M OF FIRE HYDRANT,11.0,43.7738992,-79.254181,55 Town Centre Court Scarborough ON M1P 4X4 Canada,100.0
207549,2008,15,5 RESURRECTION RD,34,3400.0,PARK 3 M OF FIRE HYDRANT,13.0,43.6445596,-79.53081449999999,5 Resurrection Rd Etobicoke ON M9A 5H1 Canada,100.0
205468,2008,15,304 ADELAIDE ST W,34,3400.0,PARK 3 M OF FIRE HYDRANT,16.0,43.6477927,-79.3912922,304 Adelaide St W Toronto ON M5V 1P6 Canada,100.0
204423,2008,15,242 JOHN GARLAND BLVD,34,3400.0,PARK 3 M OF FIRE HYDRANT,10.0,43.73354130000001,-79.5929506,242 John Garland Blvd Etobicoke ON M9V 1N8 Canada,100.0
206918,2008,15,420 WELLINGTON ST W,34,3400.0,PARK 3 M OF FIRE HYDRANT,13.0,43.6438913,-79.39641639999999,420 Wellington St W Toronto ON M5V 1E3 Canada,100.0
200400,2008,15,1 FRONT ST W,34,3400.0,PARK 3 M OF FIRE HYDRANT,15.0,43.6460815,-79.3778267,1 Front St W Toronto ON M5E Canada,100.0
204048,2008,15,224 ADELAIDE ST W,34,3400.0,PARK 3 M OF FIRE HYDRANT,14.0,43.6484781,-79.3880553,224 Adelaide St W Toronto ON M5H 1W7 Canada,100.0
209946,2008,15,91 KING ST E,33,3300.0,PARK 3 M OF FIRE HYDRANT,14.0,43.6496893,-79.3749752,91 King St E Toronto ON M5C 1G3 Canada,100.0
204256,2008,15,2345 LAKE SHORE BLVD W,33,3300.0,PARK 3 M OF FIRE HYDRANT,16.0,43.616357,-79.4875979,2345 Lake Shore Blvd W Etobicoke ON M8V 1B6 Canada,100.0
204251,2008,15,234 SIMCOE ST,33,3300.0,PARK 3 M OF FIRE HYDRANT,14.0,43.6533211,-79.3890957,234 Simcoe St Toronto ON M5T 1T4 Canada,100.0
200388,2008,15,1 DUPLEX AVE,33,3300.0,PARK 3 M OF FIRE HYDRANT,14.0,43.6980599,-79.39805,1 Duplex Ave Toronto ON M5P Canada,100.0
200642,2008,15,101 BLOOR ST W,33,3300.0,PARK 3 M OF FIRE HYDRANT,13.0,43.6690924,-79.3912525,101 Bloor St W Toronto ON M5S 3L7 Canada,100.0
204228,2008,15,2323 YONGE ST,33,3300.0,PARK 3 M OF FIRE HYDRANT,14.0,43.7082921,-79.398242,2323 Yonge St Toronto ON M4P 2C9 Canada,100.0
206495,2008,15,39 TARLTON RD,33,3300.0,PARK 3 M OF FIRE HYDRANT,13.0,43.7031921,-79.4128059,39 Tarlton Rd Toronto ON M5P 2M6 Canada,100.0
202676,2008,15,17 ISABELLA ST,33,3300.0,PARK 3 M OF FIRE HYDRANT,12.0,43.6676782,-79.38456149999999,17 Isabella St Toronto ON M4Y 1N1 Canada,100.0
205397,2008,15,30 ST CLAIR AVE W,33,3300.0,PARK 3 M OF FIRE HYDRANT,13.0,43.6880905,-79.3951934,30 St Clair Ave W Toronto ON M4V Canada,100.0
204793,2008,15,260 RICHMOND ST E,33,3300.0,PARK 3 M OF FIRE HYDRANT,14.0,43.653235,-79.3702878,260 Richmond St E Toronto ON M5A 1P4 Canada,100.0
202401,2008,15,1590 BAYVIEW AVE,33,3300.0,PARK 3 M OF FIRE HYDRANT,17.0,43.7058832,-79.3753921,1590 Bayview Ave Toronto ON M4G 3B7 Canada,100.0
203755,2008,15,21 PIPER ST,33,3300.0,PARK 3 M OF FIRE HYDRANT,13.0,43.8033815,-79.2720327,21 Pipers Green Ave Scarborough ON M1S 3J9 Canada,100.0
203802,2008,15,212 MC CAUL ST,33,3300.0,PARK 3 M OF FIRE HYDRANT,13.0,43.6573681,-79.3930397,212 McCaul St Toronto ON M5T 1W5 Canada,100.0
207879,2008,15,533 PALMERSTON BLVD,32,3200.0,PARK 3 M OF FIRE HYDRANT,14.0,43.6639553,-79.4131584,533 Palmerston Blvd Toronto ON M6G 2P4 Canada,100.0
205316,2008,15,3 PARK HOME AVE,32,3200.0,PARK 3 M OF FIRE HYDRANT,13.0,43.7683918,-79.4143753,3 Park Home Ave Toronto ON M2N Canada,100.0
207689,2008,15,51 CAMDEN ST,32,3200.0,PARK 3 M OF FIRE HYDRANT,14.0,43.6467499,-79.39816979999999,51 Camden St Toronto ON M5V 1V2 Canada,100.0
207637,2008,15,500 KING ST W,32,3200.0,PARK 3 M OF FIRE HYDRANT,13.0,43.6452912,-79.39676089999999,500 King St W Toronto ON M5V 1L8 Canada,100.0
210431,2008,15,KIPPENDAVIE AVE,32,3200.0,PARK 3 M OF FIRE HYDRANT,17.0,43.6670635,-79.3029858,Kippendavie Ave Toronto ON M4L Canada,100.0
210629,2008,15,WILLCOCKS ST,31,3100.0,PARK 3 M OF FIRE HYDRANT,12.0,43.6614219,-79.40076520000001,Willcocks St Toronto ON M5S Canada,100.0
210316,2008,15,DORIS AVE,31,3100.0,PARK 3 M OF FIRE HYDRANT,16.0,43.7713837,-79.411609,Doris Ave Toronto ON M2N Canada,100.0
206767,2008,15,41 ELM ST,31,3100.0,PARK 3 M OF FIRE HYDRANT,13.0,43.657267,-79.3839455,41 Elm St Toronto ON M5G 1H1 Canada,100.0
209035,2008,15,70 ST MARY ST,31,3100.0,PARK 3 M OF FIRE HYDRANT,15.0,43.66722559999999,-79.3900187,70 St Mary St Toronto ON M5S 1J3 Canada,100.0
201099,2008,15,114 BALMORAL AVE,31,3100.0,PARK 3 M OF FIRE HYDRANT,12.0,43.6849667,-79.3982443,114 Balmoral Ave Toronto ON M4V 1J4 Canada,100.0
209972,2008,15,92 KING ST E,31,3100.0,PARK 3 M OF FIRE HYDRANT,13.0,43.6501109,-79.3749132,92 King St E Toronto ON M5C 2V8 Canada,100.0
209260,2008,15,76 BALMORAL AVE,31,3100.0,PARK 3 M OF FIRE HYDRANT,14.0,43.6852536,-79.39693489999999,76 Balmoral Ave Toronto ON M4V 1J4 Canada,100.0
200577,2008,15,100 COSBURN AVE,31,3100.0,PARK 3 M OF FIRE HYDRANT,12.0,43.6894173,-79.3500548,100 Cosburn Ave East York ON M4K 2G7 Canada,100.0
203807,2008,15,2120 QUEEN ST E,31,3100.0,PARK 3 M OF FIRE HYDRANT,16.0,43.6713781,-79.2947002,2120 Queen St E Toronto ON M4E 1E2 Canada,100.0
200435,2008,15,1 RYERSON AVE,31,3100.0,PARK 3 M OF FIRE HYDRANT,15.0,43.6475999,-79.4019818,1 Ryerson Ave Toronto ON M5V Canada,100.0
209399,2008,15,79 SULLIVAN ST,31,3100.0,PARK 3 M OF FIRE HYDRANT,13.0,43.6509011,-79.3961691,79 Sullivan St Toronto ON M5T 1C2 Canada,100.0
209174,2008,15,738 RICHMOND ST W,31,3100.0,PARK 3 M OF FIRE HYDRANT,13.0,43.645753,-79.4085261,738 Richmond St W Toronto ON M6J 1C5 Canada,100.0
209831,2008,15,89 LILLIAN ST,31,3100.0,PARK 3 M OF FIRE HYDRANT,16.0,43.7071075,-79.3934165,89 Lillian St Toronto ON M4S 2H7 Canada,100.0
204019,2008,15,222 ELM ST,31,3100.0,PARK 3 M OF FIRE HYDRANT,12.0,43.6559523,-79.39190049999999,222 Elm St Toronto ON M5T 1K4 Canada,100.0
202093,2008,15,15 BEECROFT RD,31,3100.0,PARK 3 M OF FIRE HYDRANT,13.0,43.7624302,-79.413681,15 Beecroft Rd North York ON M2N Canada,100.0
204909,2008,15,27 ELM ST,30,3000.0,PARK 3 M OF FIRE HYDRANT,17.0,43.6573938,-79.38303739999999,27 Elm St Toronto ON M5G 1H1 Canada,100.0
205568,2008,15,312 COOK RD,30,3000.0,PARK 3 M OF FIRE HYDRANT,15.0,43.7674899,-79.4999165,312 Cook Rd North York ON M3J 0C2 Canada,100.0
205035,2008,15,28 GLENDALE AVE,30,3000.0,PARK 3 M OF FIRE HYDRANT,14.0,43.6403391,-79.45147209999999,28 Glendale Ave Toronto ON M6R 2S7 Canada,100.0
205208,2008,15,292 QUEEN ST W,30,3000.0,PARK 3 M OF FIRE HYDRANT,15.0,43.649626,-79.3930329,292 Queen St W Toronto ON M5V 2A1 Canada,100.0
206858,2008,15,418 WELLINGTON ST W,30,3000.0,PARK 3 M OF FIRE HYDRANT,13.0,43.6443521,-79.39620529999999,418 Wellington St W Toronto ON M5V 1E3 Canada,100.0
203521,2008,15,20 JENOVES PL,30,3000.0,PARK 3 M OF FIRE HYDRANT,12.0,43.6489685,-79.3695517,20 Jenoves Pl Toronto ON M5A 4A7 Canada,100.0
202302,2008,15,155 BONIS AVE,30,3000.0,PARK 3 M OF FIRE HYDRANT,15.0,43.7843379,-79.2921155,155 Bonis Ave Scarborough ON M1T Canada,100.0
202904,2008,15,18 LOWTHER AVE,30,3000.0,PARK 3 M OF FIRE HYDRANT,14.0,43.6708774,-79.3964022,18 Lowther Ave Toronto ON M5R 1C6 Canada,100.0
203762,2008,15,21 ST JOSEPH ST,30,3000.0,PARK 3 M OF FIRE HYDRANT,16.0,43.6657473,-79.3865132,21 St Joseph St Toronto ON M4Y 1J8 Canada,100.0
210148,2008,15,98 WELLS ST,29,2900.0,PARK 3 M OF FIRE HYDRANT,9.0,43.6707443,-79.4113102,98 Wells St Toronto ON M5R 1P3 Canada,100.0
203841,2008,15,215 HURON ST,29,2900.0,PARK 3 M OF FIRE HYDRANT,14.0,43.6593909,-79.39823510000001,215 Huron St Toronto ON M5T 1R2 Canada,100.0
203779,2008,15,210 GALLEY AVE,29,2900.0,PARK 3 M OF FIRE HYDRANT,11.0,43.6426368,-79.44978630000001,210 Galley Ave Toronto ON M6R 1H4 Canada,100.0
206471,2008,15,39 FRONT ST E,29,2900.0,PARK 3 M OF FIRE HYDRANT,15.0,43.6476951,-79.3748458,39 Front St E Toronto ON M5E 1B3 Canada,100.0
205559,2008,15,310 SPADINA AVE,29,2900.0,PARK 3 M OF FIRE HYDRANT,16.0,43.6536139,-79.39856759999999,310 Spadina Ave Toronto ON M5T 2E7 Canada,100.0
200560,2008,15,10 WELLINGTON ST E,29,2900.0,PARK 3 M OF FIRE HYDRANT,14.0,43.6483687,-79.37660129999999,10 Wellington St E Toronto ON M5E 1C5 Canada,100.0
205698,2008,15,320 QUEEN ST W,29,2900.0,PARK 3 M OF FIRE HYDRANT,14.0,43.6493956,-79.3944533,320 Queen St W Toronto ON M5V 2A2 Canada,100.0
205724,2008,15,3224 YONGE ST,29,2900.0,PARK 3 M OF FIRE HYDRANT,14.0,43.7289401,-79.40347469999999,3224 Yonge St Toronto ON M4N 2L2 Canada,100.0
208411,2008,15,60 GRENVILLE ST,29,2900.0,PARK 3 M OF FIRE HYDRANT,14.0,43.6616478,-79.3867312,60 Grenville St Toronto ON M5S 1B1 Canada,100.0
209667,2008,15,843 COXWELL AVE,29,2900.0,PARK 3 M OF FIRE HYDRANT,13.0,43.6912897,-79.3268109,843 Coxwell Ave East York ON M4J 5C2 Canada,100.0
206050,2008,15,346 QUEEN ST W,29,2900.0,PARK 3 M OF FIRE HYDRANT,14.0,43.6492714,-79.3952578,346 Queen St W Toronto ON M5V 2A2 Canada,100.0
210055,2008,15,95 MC CAUL ST,28,2800.0,PARK 3 M OF FIRE HYDRANT,12.0,43.6532698,-79.3908378,95 McCaul St Toronto ON M5T 2W7 Canada,100.0
206227,2008,15,361 EGLINTON AVE W,28,2800.0,PARK 3 M OF FIRE HYDRANT,13.0,43.704144,-79.4100852,361 Eglinton Ave W Toronto ON M5N 1A3 Canada,100.0
203679,2008,15,207 MC CAUL ST,28,2800.0,PARK 3 M OF FIRE HYDRANT,13.0,43.6572132,-79.3924801,207 McCaul St Toronto ON M5T 1W6 Canada,100.0
207547,2008,15,5 PARK HOME AVE,28,2800.0,PARK 3 M OF FIRE HYDRANT,13.0,43.7687027,-79.4149034,5 Park Home Ave Toronto ON M2N 6L4 Canada,100.0
209066,2008,15,71 EDWARD ST,28,2800.0,PARK 3 M OF FIRE HYDRANT,15.0,43.6563516,-79.38375239999999,71 Edward St Toronto ON M5G 1C9 Canada,100.0
205960,2008,15,34 BORDEN ST,28,2800.0,PARK 3 M OF FIRE HYDRANT,12.0,43.6579392,-79.4057006,34 Borden St Toronto ON M5S 2M9 Canada,100.0
201129,2008,15,115 FRONT ST E,28,2800.0,PARK 3 M OF FIRE HYDRANT,14.0,43.6490549,-79.3703589,115 Front St E Toronto ON M5A 4S5 Canada,100.0
202535,2008,15,163 HURON ST,28,2800.0,PARK 3 M OF FIRE HYDRANT,12.0,43.6573408,-79.39767239999999,163 Huron St Toronto ON M5T 2B6 Canada,100.0
209987,2008,15,922 LOGAN AVE,28,2800.0,PARK 3 M OF FIRE HYDRANT,15.0,43.678856,-79.3499404,922 Logan Ave Toronto ON M4K 3E4 Canada,100.0
204157,2008,15,23 HOLLYWOOD AVE,28,2800.0,PARK 3 M OF FIRE HYDRANT,13.0,43.7655991,-79.4109452,23 Hollywood Ave North York ON M2N 7L8 Canada,100.0
200364,2008,15,1 BROOKDALE AVE,28,2800.0,PARK 3 M OF FIRE HYDRANT,12.0,43.7299102,-79.4036476,1 Brookdale Ave Toronto ON M5M 1P2 Canada,100.0
205313,2008,15,3 KENSINGTON AVE,28,2800.0,PARK 3 M OF FIRE HYDRANT,15.0,43.65271569999999,-79.3997679,3 Kensington Ave Toronto ON M5T 2J8 Canada,100.0
202892,2008,15,18 HOLLYWOOD AVE,27,2700.0,PARK 3 M OF FIRE HYDRANT,14.0,43.76653220000001,-79.41107459999999,18 Hollywood Ave North York ON M2N Canada,100.0
203166,2008,15,191 BOOTH AVE,27,2700.0,PARK 3 M OF FIRE HYDRANT,12.0,43.6607233,-79.34357779999999,191 Booth Ave Toronto ON M4M 2M6 Canada,100.0
210578,2008,15,STRATHMORE BLVD,27,2700.0,PARK 3 M OF FIRE HYDRANT,14.0,43.6837824,-79.3257028,Strathmore Blvd Toronto ON Canada,100.0
203388,2008,15,2 LITTLE NORWAY CRES,27,2700.0,PARK 3 M OF FIRE HYDRANT,14.0,43.6336826,-79.3995091,2 Little Norway Crescent Toronto ON M5V 3A3 Canada,100.0
205032,2008,15,28 FOXLEY ST,27,2700.0,PARK 3 M OF FIRE HYDRANT,16.0,43.6476777,-79.4214143,28 Foxley St Toronto ON M6J 1R1 Canada,100.0
209490,2008,15,80 CARLTON ST,27,2700.0,PARK 3 M OF FIRE HYDRANT,11.0,43.6623192,-79.3788462,80 Carlton St Toronto ON M5B 1L6 Canada,100.0
201987,2008,15,145 FRONT ST E,27,2700.0,PARK 3 M OF FIRE HYDRANT,13.0,43.64984010000001,-79.3692382,145 Front St E Toronto ON M5A 1E1 Canada,100.0
205865,2008,15,331 WARREN RD,27,2700.0,PARK 3 M OF FIRE HYDRANT,13.0,43.7029393,-79.4139671,331 Warren Rd Toronto ON M5P 2M7 Canada,100.0
204771,2008,15,26 TICHESTER RD,27,2700.0,PARK 3 M OF FIRE HYDRANT,9.0,43.6855944,-79.4182178,26 Tichester Rd York ON M5P 3L8 Canada,100.0
207415,2008,15,488 EGLINTON AVE W,27,2700.0,PARK 3 M OF FIRE HYDRANT,15.0,43.7038316,-79.4128564,488 Eglinton Ave W Toronto ON M5N 1A5 Canada,100.0
207496,2008,15,4968 YONGE ST,26,2600.0,PARK 3 M OF FIRE HYDRANT,13.0,43.7651528,-79.4122785,4968 Yonge St North York ON M2N 7H1 Canada,100.0
205152,2008,15,29 FENWICK AVE,26,2600.0,PARK 3 M OF FIRE HYDRANT,13.0,43.6773932,-79.3479464,29 Fenwick Ave Toronto ON M4K 3H2 Canada,100.0
201675,2008,15,132 CRAWFORD ST,26,2600.0,PARK 3 M OF FIRE HYDRANT,13.0,43.6459143,-79.41566360000002,132 Crawford St Toronto ON M6J 2V4 Canada,100.0
208860,2008,15,68 GRANGE AVE,26,2600.0,PARK 3 M OF FIRE HYDRANT,15.0,43.65225179999999,-79.3963089,68 Grange Ave Toronto ON M5T 1C9 Canada,100.0
203004,2008,15,184 PEARL ST,26,2600.0,PARK 3 M OF FIRE HYDRANT,13.0,43.6474877,-79.3893955,184 Pearl St Toronto ON M5H 1L5 Canada,100.0
207861,2008,15,5308 YONGE ST,26,2600.0,PARK 3 M OF FIRE HYDRANT,14.0,43.7729276,-79.4140458,5308 Yonge St North York ON M2N Canada,100.0
204389,2008,15,24 WELLESLEY ST W,26,2600.0,PARK 3 M OF FIRE HYDRANT,14.0,43.6648437,-79.38592969999999,24 Wellesley St W Toronto ON M4Y 2X6 Canada,100.0
202225,2008,15,151 BLOOR ST W,26,2600.0,PARK 3 M OF FIRE HYDRANT,14.0,43.6686301,-79.3932099,151 Bloor St W Toronto ON M5S 2C7 Canada,100.0
206504,2008,15,391 QUEEN ST W,26,2600.0,PARK 3 M OF FIRE HYDRANT,14.0,43.6489694,-79.39434,391 Queen St W Toronto ON M5V 2A5 Canada,100.0
205834,2008,15,33 VICTORIA ST,26,2600.0,PARK 3 M OF FIRE HYDRANT,11.0,43.6500575,-79.3768261,33 Victoria St Toronto ON M5C Canada,100.0
203613,2008,15,201 KING ST E,26,2600.0,PARK 3 M OF FIRE HYDRANT,13.0,43.6508599,-79.36966749999999,201 King St E Toronto ON M5A 1J5 Canada,100.0
206703,2008,15,400 SPADINA RD,26,2600.0,PARK 3 M OF FIRE HYDRANT,13.0,43.6881899,-79.41287799999999,400 Spadina Rd Toronto ON M5P 2W2 Canada,100.0
208807,2008,15,67 DUNCANNON DR,25,2500.0,PARK 3 M OF FIRE HYDRANT,13.0,43.70363529999999,-79.4118496,67 Duncannon Dr Toronto ON M5P 2M3 Canada,100.0
202086,2008,15,15 ALDWINCKLE HTS,25,2500.0,PARK 3 M OF FIRE HYDRANT,14.0,43.7659076,-79.5027185,15 Aldwinckle Heights North York ON M3J 3S7 Canada,100.0
204856,2008,15,266 KING ST W,25,2500.0,PARK 3 M OF FIRE HYDRANT,13.0,43.6472627,-79.3879623,266 King St W Toronto ON M5V 1H8 Canada,100.0
208884,2008,15,680 ROSELAWN AVE,25,2500.0,PARK 3 M OF FIRE HYDRANT,15.0,43.7057238,-79.42536489999999,680 Roselawn Ave Toronto ON M5N 1L3 Canada,100.0
207997,2008,15,55 FAIRLAWN AVE,25,2500.0,PARK 3 M OF FIRE HYDRANT,14.0,43.7303959,-79.4054039,55 Fairlawn Ave Toronto ON M5M 1S6 Canada,100.0
209199,2008,15,74 VICTORIA ST,25,2500.0,PARK 3 M OF FIRE HYDRANT,12.0,43.6511,-79.3775,Royal Trust Corporation of Canada 74 Victoria St Toronto ON M5C 2A4 Canada,100.0
200466,2008,15,1 WILLCOCKS ST,25,2500.0,PARK 3 M OF FIRE HYDRANT,14.0,43.6620627,-79.3976216,1 Willcocks St Toronto ON M5S 3G3 Canada,100.0
204317,2008,15,24 BELLEVUE AVE,25,2500.0,PARK 3 M OF FIRE HYDRANT,13.0,43.6537271,-79.4031579,24 Bellevue Ave Toronto ON M5T 2N4 Canada,100.0
205235,2008,15,295 RONCESVALLES AVE,25,2500.0,PARK 3 M OF FIRE HYDRANT,13.0,43.6478875,-79.44943950000001,295 Roncesvalles Ave Toronto ON M6R 2M3 Canada,100.0
209742,2008,15,865 LOGAN AVE,25,2500.0,PARK 3 M OF FIRE HYDRANT,13.0,43.6771941,-79.3491382,865 Logan Ave Toronto ON M4K 3E2 Canada,100.0
202637,2008,15,1689 BAYVIEW AVE,25,2500.0,PARK 3 M OF FIRE HYDRANT,17.0,43.707778,-79.3757308,1689 Bayview Ave East York ON M4G 3C1 Canada,100.0
205517,2008,15,31 HOWARD ST,25,2500.0,PARK 3 M OF FIRE HYDRANT,13.0,43.67111269999999,-79.3748501,31 Howard St Toronto ON M4X 1J6 Canada,100.0
209434,2008,15,8 COLBORNE ST,25,2500.0,PARK 3 M OF FIRE HYDRANT,14.0,43.6487977,-79.3771008,8 Colborne St Toronto ON M5E 1E1 Canada,100.0
207876,2008,15,533 GLADSTONE AVE,25,2500.0,PARK 3 M OF FIRE HYDRANT,13.0,43.6600597,-79.433769,533 Gladstone Ave Toronto ON M6H 3J1 Canada,100.0
203722,2008,15,21 BOAKE ST,25,2500.0,PARK 3 M OF FIRE HYDRANT,12.0,43.7680873,-79.5002301,21 Boake St North York ON M3J 0B8 Canada,100.0
204260,2008,15,235 DANFORTH AVE,24,2400.0,PARK 3 M OF FIRE HYDRANT,13.0,43.6766112,-79.355419,235 Danforth Ave Toronto ON M4K 1N2 Canada,100.0
208359,2008,15,6 MEADOW AVE,24,2400.0,PARK 3 M OF FIRE HYDRANT,11.0,43.6817082,-79.28383889999999,6 Meadow Ave Scarborough ON M1N 1V6 Canada,100.0
209322,2008,15,77 WALES AVE,24,2400.0,PARK 3 M OF FIRE HYDRANT,14.0,43.65270659999999,-79.4043853,77 Wales Ave Toronto ON M5T 1J3 Canada,100.0
202483,2008,15,160 BOROUGH DR,24,2400.0,PARK 3 M OF FIRE HYDRANT,12.0,43.7728878,-79.2575789,160 Borough Dr Scarborough ON M1P 4N7 Canada,100.0
205887,2008,15,334 DUNDAS ST W,24,2400.0,PARK 3 M OF FIRE HYDRANT,12.0,43.65425690000001,-79.392479,334 Dundas St W Toronto ON M5T 1G5 Canada,100.0
202845,2008,15,179 GOWAN AVE,24,2400.0,PARK 3 M OF FIRE HYDRANT,14.0,43.688243,-79.3487778,179 Gowan Ave East York ON M4K 2E5 Canada,100.0
205910,2008,15,336 DUNDAS ST W,24,2400.0,PARK 3 M OF FIRE HYDRANT,13.0,43.6542373,-79.39258579999999,336 Dundas St W Toronto ON M5T 1G5 Canada,100.0
204831,2008,15,2630 YONGE ST,24,2400.0,PARK 3 M OF FIRE HYDRANT,13.0,43.7155691,-79.40053309999999,2630 Yonge St Toronto ON M4P 2J5 Canada,100.0
202886,2008,15,18 GRENVILLE ST,24,2400.0,PARK 3 M OF FIRE HYDRANT,12.0,43.662112,-79.3843857,18 Grenville St Toronto ON M4Y 3B3 Canada,100.0
204818,2008,15,262 ROXTON RD,24,2400.0,PARK 3 M OF FIRE HYDRANT,9.0,43.6554898,-79.4221543,262 Roxton Rd Toronto ON M6G 3P9 Canada,100.0
206791,2008,15,410 CRAWFORD ST,24,2400.0,PARK 3 M OF FIRE HYDRANT,10.0,43.6555678,-79.4195707,410 Crawford St Toronto ON M6G 3J6 Canada,100.0
202293,2008,15,1545 BAYVIEW AVE,24,2400.0,PARK 3 M OF FIRE HYDRANT,15.0,43.7052461,-79.3746244,1545 Bayview Ave Toronto ON M4G 3B5 Canada,100.0
208528,2008,15,62 BORDEN ST,24,2400.0,PARK 3 M OF FIRE HYDRANT,14.0,43.6587732,-79.4060374,62 Borden St Toronto ON M5S 2N1 Canada,100.0
200994,2008,15,110 MORNELLE CRT,24,2400.0,PARK 3 M OF FIRE HYDRANT,14.0,43.7864403,-79.1948209,110 Mornelle Ct Toronto ON M1E 4R1 Canada,100.0
208281,2008,15,592 MOUNT PLEASANT RD,24,2400.0,PARK 3 M OF FIRE HYDRANT,15.0,43.70353009999999,-79.3885116,592 Mt Pleasant Rd Toronto ON M4S 2M8 Canada,100.0
210249,2008,15,BROOKDALE AVE,24,2400.0,PARK 3 M OF FIRE HYDRANT,12.0,43.7270099,-79.4174113,Brookdale Ave Toronto ON Canada,100.0
203656,2008,15,205 DAVENPORT RD,24,2400.0,PARK 3 M OF FIRE HYDRANT,14.0,43.6748852,-79.3951632,205 Davenport Rd Toronto ON M5R Canada,100.0
205719,2008,15,322 SAMMON AVE,24,2400.0,PARK 3 M OF FIRE HYDRANT,7.0,43.6867378,-79.3360058,322 Sammon Ave East York ON M4J 2A2 Canada,100.0
201786,2008,15,138 DANFORTH AVE,24,2400.0,PARK 3 M OF FIRE HYDRANT,16.0,43.6765705,-79.35781,138 Danforth Ave Toronto ON M4K 1N1 Canada,100.0
210477,2008,15,MORNELLE CRT,23,2300.0,PARK 3 M OF FIRE HYDRANT,13.0,43.7864365,-79.196044,Mornelle Ct Toronto ON M1E 4R1 Canada,100.0
206018,2008,15,342 BRUNSWICK AVE,23,2300.0,PARK 3 M OF FIRE HYDRANT,16.0,43.6672922,-79.40827759999999,342 Brunswick Ave Toronto ON M5R 2Y9 Canada,100.0
204546,2008,15,25 MC GILL ST,23,2300.0,PARK 3 M OF FIRE HYDRANT,14.0,43.6600864,-79.381239,25 McGill St Toronto ON M5B 1H3 Canada,100.0
210612,2008,15,VICTORIA ST,23,2300.0,PARK 3 M OF FIRE HYDRANT,13.0,43.654325,-79.37877770000001,Victoria St Toronto ON Canada,100.0
206027,2008,15,343 DANFORTH AVE,23,2300.0,PARK 3 M OF FIRE HYDRANT,16.0,43.6771733,-79.3531953,343 Danforth Ave Toronto ON M4K 1N7 Canada,100.0
203398,2008,15,2 MURRAY ST,23,2300.0,PARK 3 M OF FIRE HYDRANT,12.0,43.6582745,-79.3913348,2 Murray St Toronto ON M5G 1X5 Canada,100.0
204514,2008,15,25 CALLENDER ST,23,2300.0,PARK 3 M OF FIRE HYDRANT,9.0,43.6405202,-79.4424703,25 Callender St Toronto ON M6R 2H2 Canada,100.0
208429,2008,15,60 MONTCLAIR AVE,23,2300.0,PARK 3 M OF FIRE HYDRANT,13.0,43.6878371,-79.4133733,60 Montclair Ave Toronto ON M5P 1P7 Canada,100.0
203606,2008,15,200 ST CLAIR AVE W,23,2300.0,PARK 3 M OF FIRE HYDRANT,13.0,43.6867578,-79.4025561,200 St Clair Ave W Toronto ON M4V 1R1 Canada,100.0
201543,2008,15,127 PORTLAND ST,23,2300.0,PARK 3 M OF FIRE HYDRANT,15.0,43.6462878,-79.4005533,127 Portland St Toronto ON M5V 2N4 Canada,100.0
202433,2008,15,16 DENISON SQ,23,2300.0,PARK 3 M OF FIRE HYDRANT,13.0,43.653806,-79.40250189999999,16 Denison Square Toronto ON M5T 1K8 Canada,100.0
209829,2008,15,89 KING ST E,23,2300.0,PARK 3 M OF FIRE HYDRANT,14.0,43.6495492,-79.37500059999999,89 King St E Toronto ON M5C 1G3 Canada,100.0
208006,2008,15,55 LISGAR ST,23,2300.0,PARK 3 M OF FIRE HYDRANT,14.0,43.6426551,-79.423227,55 Lisgar St Toronto ON M6J 3X6 Canada,100.0
204730,2008,15,26 CUMBERLAND ST,23,2300.0,PARK 3 M OF FIRE HYDRANT,13.0,43.6710085,-79.3885451,26 Cumberland St Toronto ON M4W 1J5 Canada,100.0
208482,2008,15,609 KING ST W,23,2300.0,PARK 3 M OF FIRE HYDRANT,12.0,43.6441094,-79.40070899999999,609 King St W Toronto ON M5V 1M5 Canada,100.0
207079,2008,15,440 CRAWFORD ST,23,2300.0,PARK 3 M OF FIRE HYDRANT,11.0,43.6561249,-79.4200053,440 Crawford St Toronto ON M6G 3J6 Canada,100.0
201387,2008,15,122 BOARDWALK DR,23,2300.0,PARK 3 M OF FIRE HYDRANT,16.0,43.6661694,-79.3062824,122 Boardwalk Dr Toronto ON M4L 3X4 Canada,100.0
202918,2008,15,18 RATHNELLY AVE,23,2300.0,PARK 3 M OF FIRE HYDRANT,12.0,43.6778777,-79.40091230000002,18 Rathnelly Ave Toronto ON M4V 2M3 Canada,100.0
208387,2008,15,60 ADELAIDE ST E,23,2300.0,PARK 3 M OF FIRE HYDRANT,17.0,43.6512763,-79.375695,60 Adelaide St E Toronto ON M5C 3E4 Canada,100.0
203890,2008,15,219 FRONT ST E,22,2200.0,PARK 3 M OF FIRE HYDRANT,14.0,43.6507612,-79.3657659,219 Front St E Toronto ON M5A 1E8 Canada,100.0
200552,2008,15,10 TEMPERANCE ST,22,2200.0,PARK 3 M OF FIRE HYDRANT,11.0,43.6510992,-79.3791616,Dineen Building 10 Temperance St Toronto ON M5H 1Y4 Canada,100.0
201771,2008,15,137 DANFORTH AVE,22,2200.0,PARK 3 M OF FIRE HYDRANT,12.0,43.6762808,-79.3574387,137 Danforth Ave Toronto ON M4K 1N2 Canada,100.0
205479,2008,15,306 ADELAIDE ST W,22,2200.0,PARK 3 M OF FIRE HYDRANT,15.0,43.64774329999999,-79.3913468,306 Adelaide St W Toronto ON M5V 1P6 Canada,100.0
209484,2008,15,80 BLOOR ST W,22,2200.0,PARK 3 M OF FIRE HYDRANT,13.0,43.6698634,-79.39017679999999,80 Bloor St W Toronto ON M5S 2V1 Canada,100.0
205116,2008,15,287 ASSINIBOINE RD,22,2200.0,PARK 3 M OF FIRE HYDRANT,15.0,43.7686783,-79.4992989,287 Assiniboine Rd North York ON M3J 0C4 Canada,100.0
205882,2008,15,333 STRATHMORE BLVD,22,2200.0,PARK 3 M OF FIRE HYDRANT,14.0,43.6839155,-79.3244378,333 Strathmore Blvd Toronto ON M4J 1P9 Canada,100.0
208425,2008,15,60 MC GILL ST,22,2200.0,PARK 3 M OF FIRE HYDRANT,15.0,43.6605043,-79.38022509999999,60 McGill St Toronto ON M5B 1H2 Canada,100.0
208084,2008,15,56 FENWICK AVE,22,2200.0,PARK 3 M OF FIRE HYDRANT,11.0,43.6777264,-79.3484789,56 Fenwick Ave Toronto ON M4K 3H3 Canada,100.0
206926,2008,15,421 SPADINA RD,22,2200.0,PARK 3 M OF FIRE HYDRANT,13.0,43.6890417,-79.41247109999999,421 Spadina Rd Toronto ON M5P 2W3 Canada,100.0
200932,2008,15,11 LARKIN AVE,22,2200.0,PARK 3 M OF FIRE HYDRANT,13.0,43.6484791,-79.48311679999999,11 Larkin Ave Toronto ON M6S 1L7 Canada,100.0
203524,2008,15,20 KING ST W,22,2200.0,PARK 3 M OF FIRE HYDRANT,9.0,43.6492821,-79.3790933,20 King St W Toronto ON M5H 1A1 Canada,100.0
201108,2008,15,114 KILBARRY RD,22,2200.0,PARK 3 M OF FIRE HYDRANT,9.0,43.6939741,-79.4102082,114 Kilbarry Rd Toronto ON M5P 1L1 Canada,100.0
201271,2008,15,12 ELM ST,22,2200.0,PARK 3 M OF FIRE HYDRANT,16.0,43.657844,-79.3824419,12 Elm St Toronto ON M5G 1G7 Canada,100.0
206548,2008,15,4 BROOKDALE AVE,22,2200.0,PARK 3 M OF FIRE HYDRANT,13.0,43.7299362,-79.4036582,4 Brookdale Ave Toronto ON M5M 1P3 Canada,100.0
202173,2008,15,15 SHALLMAR BLVD,22,2200.0,PARK 3 M OF FIRE HYDRANT,15.0,43.7039428,-79.4243599,15 Shallmar Blvd Toronto ON M5N 1J7 Canada,100.0
202171,2008,15,15 ROSS ST,22,2200.0,PARK 3 M OF FIRE HYDRANT,14.0,43.65759509999999,-79.3964069,15 Ross St Toronto ON M5T 1Z8 Canada,100.0
210302,2008,15,DE GRASSI ST,22,2200.0,PARK 3 M OF FIRE HYDRANT,13.0,43.662799,-79.3470686,Degrassi St Toronto ON M4M Canada,100.0
202814,2008,15,176 THE ESPLANADE,22,2200.0,PARK 3 M OF FIRE HYDRANT,10.0,43.6490263,-79.36796819999999,176 The Esplanade Toronto ON M5A 4H2 Canada,100.0
203202,2008,15,193 CHURCH ST,22,2200.0,PARK 3 M OF FIRE HYDRANT,14.0,43.6554869,-79.376555,193 Church St Toronto ON M5B 1Y7 Canada,100.0
201417,2008,15,1226 ST CLAIR AVE W,22,2200.0,PARK 3 M OF FIRE HYDRANT,14.0,43.67767689999999,-79.4449964,1226 St Clair Ave W Toronto ON M6E 1B4 Canada,100.0
204720,2008,15,26 BELLEVUE AVE,22,2200.0,PARK 3 M OF FIRE HYDRANT,13.0,43.6537424,-79.40335619999999,26 Bellevue Ave Toronto ON M5T 2N4 Canada,100.0
203971,2008,15,22 SHEPPARD ST,22,2200.0,PARK 3 M OF FIRE HYDRANT,13.0,43.6503702,-79.38271399999999,22 Sheppard St Toronto ON M5H 4E8 Canada,100.0
201827,2008,15,14 BOULTON DR,21,2100.0,PARK 3 M OF FIRE HYDRANT,11.0,43.6776623,-79.4037187,14 Boulton Dr Toronto ON M4V 2V4 Canada,100.0
206843,2008,15,415 SPADINA AVE,21,2100.0,PARK 3 M OF FIRE HYDRANT,15.0,43.6570217,-79.39935670000001,415 Spadina Ave Toronto ON M5T 2G6 Canada,100.0
206698,2008,15,400 KING ST W,21,2100.0,PARK 3 M OF FIRE HYDRANT,17.0,43.6460774,-79.39329670000001,400 King St W Toronto ON M5V 1K2 Canada,100.0
210167,2008,15,99 HOWARD ST,21,2100.0,PARK 3 M OF FIRE HYDRANT,9.0,43.6712251,-79.3711599,99 Howard St Toronto ON M4X 1K1 Canada,100.0
204104,2008,15,227 FRONT ST E,21,2100.0,PARK 3 M OF FIRE HYDRANT,13.0,43.65071469999999,-79.36521739999999,227 Front St E Toronto ON M5A 1E8 Canada,100.0
205013,2008,15,28 BALMORAL AVE,21,2100.0,PARK 3 M OF FIRE HYDRANT,12.0,43.6857428,-79.3945525,28 Balmoral Ave Toronto ON M4V 1J4 Canada,100.0
208600,2008,15,630 ROSELAWN AVE,21,2100.0,PARK 3 M OF FIRE HYDRANT,12.0,43.7061233,-79.4230266,630 Roselawn Ave Toronto ON M5N 1K8 Canada,100.0
204353,2008,15,24 LINDEN ST,21,2100.0,PARK 3 M OF FIRE HYDRANT,12.0,43.6706387,-79.3774092,24 Linden St Toronto ON M4Y 1V6 Canada,100.0
206259,2008,15,366 EGLINTON AVE W,21,2100.0,PARK 3 M OF FIRE HYDRANT,13.0,43.7046769,-79.4094439,366 Eglinton Ave W Toronto ON M5N 1A2 Canada,100.0
206354,2008,15,379 COOK RD,21,2100.0,PARK 3 M OF FIRE HYDRANT,14.0,43.7665693,-79.5029194,379 Cook Rd North York ON M3J 0A8 Canada,100.0
204201,2008,15,230 TOWN CENTRE CRT,21,2100.0,PARK 3 M OF FIRE HYDRANT,12.0,43.7744283,-79.2535649,230 Town Centre Court Scarborough ON M1P 4Y7 Canada,100.0
200675,2008,15,102 BALDWIN ST,21,2100.0,PARK 3 M OF FIRE HYDRANT,16.0,43.6553599,-79.3972113,102 Baldwin St Toronto ON M5T 1L6 Canada,100.0
206060,2008,15,35 ALDWINCKLE HTS,21,2100.0,PARK 3 M OF FIRE HYDRANT,13.0,43.7664788,-79.5028353,35 Aldwinckle Heights North York ON M3J 3S7 Canada,100.0
205571,2008,15,312 QUEEN ST W,21,2100.0,PARK 3 M OF FIRE HYDRANT,17.0,43.6494433,-79.39413449999999,312 Queen St W Toronto ON M5V 2A2 Canada,100.0
201429,2008,15,123 HURON ST,21,2100.0,PARK 3 M OF FIRE HYDRANT,13.0,43.6560189,-79.397024,123 Huron St Toronto ON M5T 2B3 Canada,100.0
203774,2008,15,210 BLOOR ST W,20,2000.0,PARK 3 M OF FIRE HYDRANT,13.0,43.6685013,-79.3959679,210 Bloor St W Toronto ON M5S 1T8 Canada,100.0
200876,2008,15,109 FRONT ST E,20,2000.0,PARK 3 M OF FIRE HYDRANT,13.0,43.6490549,-79.3703589,109 Front St E Toronto ON M5A 4S5 Canada,100.0
202040,2008,15,1471 GERRARD ST E,20,2000.0,PARK 3 M OF FIRE HYDRANT,18.0,43.6723868,-79.3206817,1471 Gerrard St E Toronto ON M4L 2A1 Canada,100.0
201953,2008,15,143 EIGHTH ST,20,2000.0,PARK 3 M OF FIRE HYDRANT,8.0,43.6020657,-79.5069037,143 Eighth St Etobicoke ON M8V Canada,100.0
210331,2008,15,EDWARD ST,20,2000.0,PARK 3 M OF FIRE HYDRANT,16.0,43.6562747,-79.3847838,Edward St Toronto ON Canada,100.0
209287,2008,15,761 QUEEN ST W,20,2000.0,PARK 3 M OF FIRE HYDRANT,15.0,43.6463274,-79.4078138,761 Queen St W Toronto ON M6J 1G1 Canada,100.0
204212,2008,15,231 KING ST E,20,2000.0,PARK 3 M OF FIRE HYDRANT,13.0,43.6508972,-79.3709068,231 KING ST E Toronto ON M5A 1J9 Canada,100.0
208942,2008,15,691 QUEEN ST W,20,2000.0,PARK 3 M OF FIRE HYDRANT,16.0,43.6468637,-79.405164,691 Queen St W Toronto ON M6J 1E6 Canada,100.0
207946,2008,15,5400 YONGE ST,20,2000.0,PARK 3 M OF FIRE HYDRANT,15.0,43.7746978,-79.4146908,5400 Yonge St North York ON M2N 5R5 Canada,100.0
202208,2008,15,150 KILGOUR RD,20,2000.0,PARK 3 M OF FIRE HYDRANT,13.0,43.7182231,-79.3739944,150 Kilgour Rd East York ON M4G 0A2 Canada,100.0
201228,2008,15,1187 LANSDOWNE AVE,20,2000.0,PARK 3 M OF FIRE HYDRANT,10.0,43.6709875,-79.4479523,1187 Lansdowne Ave Toronto ON M6H 3Z7 Canada,100.0
200846,2008,15,108 BERGAMOT AVE,20,2000.0,PARK 3 M OF FIRE HYDRANT,14.0,43.71872339999999,-79.5533765,108 Bergamot Ave Etobicoke ON M9W 1X4 Canada,100.0
204426,2008,15,2428 YONGE ST,20,2000.0,PARK 3 M OF FIRE HYDRANT,16.0,43.7102527,-79.3993545,2428 Yonge St Toronto ON M4P 2H4 Canada,100.0
209437,2008,15,8 CROSS ST,20,2000.0,PARK 3 M OF FIRE HYDRANT,8.0,43.647589,-79.4281519,8 Cross St Toronto ON M6J 1S8 Canada,100.0
201700,2008,15,1333 DANFORTH AVE,20,2000.0,PARK 3 M OF FIRE HYDRANT,17.0,43.6820444,-79.3290981,1333 Danforth Ave Toronto ON M4J 1N1 Canada,100.0
205526,2008,15,31 MERCER ST,20,2000.0,PARK 3 M OF FIRE HYDRANT,13.0,43.645509,-79.3908575,31 Mercer St Toronto ON M5V 1H2 Canada,100.0
205413,2008,15,30 WELLINGTON ST W,20,2000.0,PARK 3 M OF FIRE HYDRANT,12.0,43.6475888,-79.3792489,30 Wellington St W Toronto ON M5E Canada,100.0
200457,2008,15,1 VENDOME PL,20,2000.0,PARK 3 M OF FIRE HYDRANT,17.0,43.7156713,-79.328099,1 Vendome Pl Toronto ON M3C Canada,100.0
205535,2008,15,31 PRINCESS ST,20,2000.0,PARK 3 M OF FIRE HYDRANT,13.0,43.6501688,-79.3661642,31 Princess St Toronto ON M5A 4M8 Canada,100.0
205455,2008,15,302 ADELAIDE ST W,20,2000.0,PARK 3 M OF FIRE HYDRANT,13.0,43.6477772,-79.39122189999999,302 Adelaide St W Toronto ON M5V 1P6 Canada,100.0
206262,2008,15,367 QUEEN ST W,20,2000.0,PARK 3 M OF FIRE HYDRANT,16.0,43.6492931,-79.3931865,367B Queen St W Toronto ON M5V 2A4 Canada,100.0
207100,2008,15,442 QUEEN ST W,20,2000.0,PARK 3 M OF FIRE HYDRANT,14.0,43.6484516,-79.3989979,442 Queen St W Toronto ON M5V 2A8 Canada,100.0
209509,2008,15,80 MILL ST,19,1900.0,PARK 3 M OF FIRE HYDRANT,18.0,43.65132149999999,-79.3580582,80 Mill St Toronto ON M5A 4T3 Canada,100.0
203107,2008,15,19 GLEBE RD E,19,1900.0,PARK 3 M OF FIRE HYDRANT,18.0,43.7011467,-79.39603749999999,19 Glebe Rd E Toronto ON M4S 1N7 Canada,100.0
206252,2008,15,365 MANNING AVE,19,1900.0,PARK 3 M OF FIRE HYDRANT,12.0,43.6554782,-79.41258739999999,365 Manning Ave Toronto ON M6G 2V6 Canada,100.0
201040,2008,15,1119 LANSDOWNE AVE,19,1900.0,PARK 3 M OF FIRE HYDRANT,16.0,43.6694031,-79.4473307,1119 Lansdowne Ave Toronto ON M6H 3Z7 Canada,100.0
205823,2008,15,33 ORCHARD VIEW BLVD,19,1900.0,PARK 3 M OF FIRE HYDRANT,17.0,43.7079042,-79.3993402,33 Orchard View Blvd Toronto ON M4R 2E9 Canada,100.0
205579,2008,15,313 RICHMOND ST E,19,1900.0,PARK 3 M OF FIRE HYDRANT,11.0,43.653194,-79.3686365,313 Richmond St E Toronto ON M5A 4S7 Canada,100.0
205500,2008,15,309 THE KINGSWAY,19,1900.0,PARK 3 M OF FIRE HYDRANT,13.0,43.6646477,-79.52268339999999,309 The Kingsway Etobicoke ON M9A Canada,100.0
205046,2008,15,28 METCALFE ST,19,1900.0,PARK 3 M OF FIRE HYDRANT,9.0,43.6656143,-79.36726949999999,28 Metcalfe St Toronto ON M4X 1R6 Canada,100.0
206803,2008,15,411 DUPLEX AVE,19,1900.0,PARK 3 M OF FIRE HYDRANT,14.0,43.707462,-79.40031019999999,411 Duplex Ave Toronto ON M4R 1V2 Canada,100.0
209517,2008,15,80 RICHMOND ST W,19,1900.0,PARK 3 M OF FIRE HYDRANT,12.0,43.651232,-79.382319,80 Richmond St W Toronto ON M5H 2A3 Canada,100.0
201929,2008,15,142 DANFORTH AVE,19,1900.0,PARK 3 M OF FIRE HYDRANT,16.0,43.6766248,-79.3577573,142 Danforth Ave Toronto ON M4K 1N1 Canada,100.0
208016,2008,15,55 ST CLAIR AVE W,19,1900.0,PARK 3 M OF FIRE HYDRANT,13.0,43.6872261,-79.39665169999999,55 St Clair Ave W Toronto ON M4V 1N5 Canada,100.0
208471,2008,15,607 DANFORTH AVE,19,1900.0,PARK 3 M OF FIRE HYDRANT,13.0,43.67847039999999,-79.3459495,607 Danforth Ave Toronto ON M4K 1R2 Canada,100.0
201079,2008,15,113 OXFORD ST,19,1900.0,PARK 3 M OF FIRE HYDRANT,10.0,43.6555571,-79.40492859999999,113 Oxford St Toronto ON M5T 1P4 Canada,100.0
208972,2008,15,7 HAYDEN ST,19,1900.0,PARK 3 M OF FIRE HYDRANT,15.0,43.6694049,-79.38597539999999,7 Hayden St Toronto ON M4Y 2P2 Canada,100.0
204997,2008,15,277 VICTORIA ST,19,1900.0,PARK 3 M OF FIRE HYDRANT,14.0,43.6563618,-79.37958569999999,277 Victoria St Toronto ON M5B 2L6 Canada,100.0
206570,2008,15,4 HERBERT AVE,19,1900.0,PARK 3 M OF FIRE HYDRANT,14.0,43.669597,-79.30508150000001,4 Herbert Ave Toronto ON M4L 3P9 Canada,100.0
203416,2008,15,2 RYERSON AVE,19,1900.0,PARK 3 M OF FIRE HYDRANT,14.0,43.648002,-79.40219019999999,2 Ryerson Ave Toronto ON M5V Canada,100.0
208694,2008,15,65 LA PLANTE AVE,19,1900.0,PARK 3 M OF FIRE HYDRANT,11.0,43.7873097,-79.17351459999999,65 Plant Blvd Scarborough ON M1C 4Z6 Canada,100.0
209362,2008,15,781 DANFORTH AVE,19,1900.0,PARK 3 M OF FIRE HYDRANT,16.0,43.6794029,-79.3417523,781 Danforth Ave Toronto ON M4J 1L2 Canada,100.0
206942,2008,15,425 UNIVERSITY AVE,18,1800.0,PARK 3 M OF FIRE HYDRANT,11.0,43.6542722,-79.38735179999999,425 University Ave Toronto ON M5G 1T6 Canada,100.0
205186,2008,15,290 COOK RD,18,1800.0,PARK 3 M OF FIRE HYDRANT,15.0,43.7677093,-79.4988604,290 Cook Rd North York ON M3J 0C6 Canada,100.0
203116,2008,15,19 KIDD TER,18,1800.0,PARK 3 M OF FIRE HYDRANT,12.0,43.765868,-79.50396200000002,19 Kidd Terrace North York ON M3J 3S9 Canada,100.0
208691,2008,15,65 HAYNES AVE,18,1800.0,PARK 3 M OF FIRE HYDRANT,14.0,43.7683268,-79.499242,65 Haynes Ave North York ON M3J 0C3 Canada,100.0
206337,2008,15,375 BLEECKER ST,18,1800.0,PARK 3 M OF FIRE HYDRANT,13.0,43.6704877,-79.3749708,375 Bleecker St Toronto ON M4X 1M3 Canada,100.0
202643,2008,15,169 KING ST E,18,1800.0,PARK 3 M OF FIRE HYDRANT,12.0,43.6503484,-79.3713047,169 King St E Toronto ON M5A 1J4 Canada,100.0
201422,2008,15,123 EDWARD ST,18,1800.0,PARK 3 M OF FIRE HYDRANT,13.0,43.6556211,-79.3867882,123 Edward St Toronto ON M5G 1E2 Canada,100.0
205638,2008,15,32 COOLMINE RD,18,1800.0,PARK 3 M OF FIRE HYDRANT,12.0,43.65037179999999,-79.426289,32 Coolmine Rd Toronto ON M6J 3E9 Canada,100.0
201069,2008,15,113 BALLIOL ST,18,1800.0,PARK 3 M OF FIRE HYDRANT,15.0,43.69789069999999,-79.3931722,113 Balliol St Toronto ON M4S 1C2 Canada,100.0
205744,2008,15,325 BLEECKER ST,18,1800.0,PARK 3 M OF FIRE HYDRANT,15.0,43.66939,-79.3743751,325 Bleecker St Toronto ON M4X 1M2 Canada,100.0
203500,2008,15,20 EGLINTON AVE W,18,1800.0,PARK 3 M OF FIRE HYDRANT,13.0,43.7068303,-79.39912939999999,20 Eglinton Ave W Toronto ON M4R 1K8 Canada,100.0
207008,2008,15,434 DUNDAS ST W,18,1800.0,PARK 3 M OF FIRE HYDRANT,12.0,43.6537643,-79.3956754,434 Dundas St W Toronto ON M5T 1G7 Canada,100.0
208230,2008,15,580 KING ST W,18,1800.0,PARK 3 M OF FIRE HYDRANT,14.0,43.6451011,-79.3994969,580 King St W Toronto ON M5V 1M1 Canada,100.0
206844,2008,15,415 SPADINA RD,18,1800.0,PARK 3 M OF FIRE HYDRANT,13.0,43.6886873,-79.41269659999999,415 Spadina Rd Toronto ON M5P 2W3 Canada,100.0
209555,2008,15,81 ST MARY ST,18,1800.0,PARK 3 M OF FIRE HYDRANT,14.0,43.6666625,-79.3903258,Elmsley Hall 81 St Mary St Toronto ON M5S 1J4 Canada,100.0
209166,2008,15,735 DANFORTH AVE,18,1800.0,PARK 3 M OF FIRE HYDRANT,14.0,43.6791955,-79.34281949999999,735 Danforth Ave Toronto ON M4J 1L2 Canada,100.0
206415,2008,15,381 RUSHOLME RD,18,1800.0,PARK 3 M OF FIRE HYDRANT,13.0,43.6606087,-79.4308762,381 Rusholme Rd Toronto ON M6H 1M1 Canada,100.0
210407,2008,15,HOLLYWOOD AVE,18,1800.0,PARK 3 M OF FIRE HYDRANT,9.0,43.7681437,-79.40081699999999,Hollywood Ave Toronto ON M2N Canada,100.0
210036,2008,15,943 LOGAN AVE,18,1800.0,PARK 3 M OF FIRE HYDRANT,14.0,43.6794463,-79.3497167,943 Logan Ave Toronto ON M4K 3E3 Canada,100.0
201217,2008,15,118 YORKVILLE AVE,18,1800.0,PARK 3 M OF FIRE HYDRANT,14.0,43.6708347,-79.3937136,118 Yorkville Ave Toronto ON M5R 1C2 Canada,100.0
207199,2008,15,455 GLENGROVE AVE,18,1800.0,PARK 3 M OF FIRE HYDRANT,11.0,43.7141674,-79.42779089999999,455 Glengrove Ave W North York ON M5N 1X4 Canada,100.0
207068,2008,15,44 SNOWDON AVE,18,1800.0,PARK 3 M OF FIRE HYDRANT,13.0,43.7315637,-79.402456,44 Snowdon Ave Toronto ON M4N 2A6 Canada,100.0
202872,2008,15,18 DURANT AVE,18,1800.0,PARK 3 M OF FIRE HYDRANT,10.0,43.6891359,-79.328227,18 Durant Ave East York ON M4J 4V9 Canada,100.0
210329,2008,15,EAST LIBERTY ST,18,1800.0,PARK 3 M OF FIRE HYDRANT,14.0,43.638422,-79.4151717,E Liberty St Toronto ON M6K Canada,100.0
207455,2008,15,49 WELLINGTON ST E,18,1800.0,PARK 3 M OF FIRE HYDRANT,16.0,43.6483604,-79.3743035,49 Wellington St E Toronto ON M5E 1C9 Canada,100.0
206622,2008,15,40 COLLEGE ST,18,1800.0,PARK 3 M OF FIRE HYDRANT,12.0,43.661198,-79.38526519999999,40 College St Toronto ON M5G Canada,100.0
202683,2008,15,17 NIAGARA ST,17,1700.0,PARK 3 M OF FIRE HYDRANT,15.0,43.642061,-79.40017970000001,17 Niagara St Toronto ON M5V 1C2 Canada,100.0
200966,2008,15,110 BLOOR ST W,17,1700.0,PARK 3 M OF FIRE HYDRANT,14.0,43.6694469,-79.3922485,110 Bloor St W Toronto ON M5S 2W7 Canada,100.0
203469,2008,15,20 BEACONSFIELD AVE,17,1700.0,PARK 3 M OF FIRE HYDRANT,10.0,43.6438888,-79.4253288,20 Beaconsfield Ave Toronto ON M6J 3H9 Canada,100.0
203949,2008,15,22 MACKAY AVE,17,1700.0,PARK 3 M OF FIRE HYDRANT,13.0,43.67708349999999,-79.4436182,22 MacKay Ave Toronto ON M6H 2N6 Canada,100.0
209526,2008,15,80 WINCHESTER ST,17,1700.0,PARK 3 M OF FIRE HYDRANT,14.0,43.666431,-79.36701540000001,80 Winchester St Toronto ON M4X 1B2 Canada,100.0
209689,2008,15,85 GLENDALE AVE,17,1700.0,PARK 3 M OF FIRE HYDRANT,11.0,43.6414509,-79.45113330000001,85 Glendale Ave Toronto ON M6R 2S8 Canada,100.0
207039,2008,15,44 CRAWFORD ST,17,1700.0,PARK 3 M OF FIRE HYDRANT,12.0,43.6423455,-79.4141027,44 Crawford St Toronto ON M6K 3N2 Canada,100.0
200508,2008,15,10 HOLLYWOOD AVE,17,1700.0,PARK 3 M OF FIRE HYDRANT,15.0,43.6774851,-79.3166129,10 Hollywood Crescent Toronto ON M4L 2K5 Canada,100.0
204741,2008,15,26 FARNHAM AVE,17,1700.0,PARK 3 M OF FIRE HYDRANT,13.0,43.6849035,-79.3941765,26 Farnham Ave Toronto ON M4V 1H4 Canada,100.0
206700,2008,15,400 MCLEVIN AVE,17,1700.0,PARK 3 M OF FIRE HYDRANT,12.0,43.8097079,-79.22116679999999,400 McLevin Ave Scarborough ON M1B 4Z8 Canada,100.0
205818,2008,15,33 KENSINGTON AVE,17,1700.0,PARK 3 M OF FIRE HYDRANT,12.0,43.6534948,-79.3998991,33 Kensington Ave Toronto ON M5T 2J8 Canada,100.0
202706,2008,15,170 DAVENPORT RD,17,1700.0,PARK 3 M OF FIRE HYDRANT,12.0,43.67519069999999,-79.3948798,170 Davenport Rd Toronto ON M5R 1J2 Canada,100.0
205585,2008,15,314 LONSDALE RD,17,1700.0,PARK 3 M OF FIRE HYDRANT,15.0,43.6890205,-79.4115403,314 Lonsdale Rd Toronto ON M4V Canada,100.0
205961,2008,15,34 BOWSFIELD RD,17,1700.0,PARK 3 M OF FIRE HYDRANT,12.0,43.7670425,-79.4982291,34 Bowsfield Rd North York ON M3J 3R3 Canada,100.0
203364,2008,15,2 GLENDALE AVE,17,1700.0,PARK 3 M OF FIRE HYDRANT,12.0,43.6394236,-79.4513127,2 Glendale Ave Toronto ON M6R 1B5 Canada,100.0
205688,2008,15,320 BRUNSWICK AVE,17,1700.0,PARK 3 M OF FIRE HYDRANT,12.0,43.6665654,-79.40802110000001,320 Brunswick Ave Toronto ON M5R 2Y9 Canada,100.0
209014,2008,15,70 GRANGE AVE,17,1700.0,PARK 3 M OF FIRE HYDRANT,16.0,43.6520824,-79.39652360000001,70 Grange Ave Toronto ON M5T 1C9 Canada,100.0
204081,2008,15,225 KING ST W,17,1700.0,PARK 3 M OF FIRE HYDRANT,13.0,43.64665460000001,-79.3882356,225 King St W Toronto ON M5V 3M2 Canada,100.0
204080,2008,15,225 GLADSTONE AVE,17,1700.0,PARK 3 M OF FIRE HYDRANT,13.0,43.6493794,-79.42959189999999,225 Gladstone Ave Toronto ON M6J 3L5 Canada,100.0
202135,2008,15,15 KENNEDY AVE,17,1700.0,PARK 3 M OF FIRE HYDRANT,14.0,43.646802,-79.4732487,15 Kennedy Ave Toronto ON M6S 2X6 Canada,100.0
201092,2008,15,1136 QUEEN ST W,17,1700.0,PARK 3 M OF FIRE HYDRANT,11.0,43.6432233,-79.4241936,1136 Queen St W Toronto ON M6J 1J3 Canada,100.0
206073,2008,15,35 HAYDEN ST,17,1700.0,PARK 3 M OF FIRE HYDRANT,13.0,43.6696102,-79.3847749,35 Hayden St Toronto ON M4Y 3C3 Canada,100.0
210024,2008,15,94 MERRICK ST,17,1700.0,PARK 3 M OF FIRE HYDRANT,14.0,43.64059,-79.45218729999999,94 Merrick St Toronto ON M6R 1C8 Canada,100.0
203660,2008,15,205 STRATHMORE BLVD,17,1700.0,PARK 3 M OF FIRE HYDRANT,14.0,43.6824596,-79.3313067,205 Strathmore Blvd Toronto ON M4J 1P4 Canada,100.0
205128,2008,15,289 ASHDALE AVE,17,1700.0,PARK 3 M OF FIRE HYDRANT,17.0,43.6729989,-79.3219183,289 Ashdale Ave Toronto ON M4L 2Z1 Canada,100.0
205747,2008,15,325 HURON ST,17,1700.0,PARK 3 M OF FIRE HYDRANT,15.0,43.6628194,-79.3995418,325 Huron St Toronto ON M5S 3J7 Canada,100.0
208776,2008,15,66 THE ESPLANADE,17,1700.0,PARK 3 M OF FIRE HYDRANT,16.0,43.6471356,-79.37392539999999,66 The Esplanade Toronto ON M5E 1A6 Canada,100.0
207054,2008,15,44 HEATH ST E,17,1700.0,PARK 3 M OF FIRE HYDRANT,13.0,43.6906813,-79.3926738,44 Heath St E Toronto ON M4T 1S3 Canada,100.0
204545,2008,15,25 MANSUR TER,17,1700.0,PARK 3 M OF FIRE HYDRANT,11.0,43.7662102,-79.4994377,25 Mansur Terrace North York ON M3J 3R2 Canada,100.0
205090,2008,15,282 QUEEN ST W,17,1700.0,PARK 3 M OF FIRE HYDRANT,15.0,43.649705,-79.3928756,282 Queen St W Toronto ON M5V 2A1 Canada,100.0
208017,2008,15,55 TANGIERS RD,16,1600.0,PARK 3 M OF FIRE HYDRANT,13.0,43.7638287,-79.4881511,55 Tangiers Rd North York ON M3J 2B1 Canada,100.0
203592,2008,15,200 KING ST E,16,1600.0,PARK 3 M OF FIRE HYDRANT,14.0,43.6509838,-79.370241,200 King St E Toronto ON M5A 3W8 Canada,100.0
209218,2008,15,748 MOUNT PLEASANT RD,16,1600.0,PARK 3 M OF FIRE HYDRANT,15.0,43.7072156,-79.3900294,748 Mt Pleasant Rd Toronto ON M4S 2N6 Canada,100.0
207806,2008,15,52 PRINCESS ST,16,1600.0,PARK 3 M OF FIRE HYDRANT,14.0,43.648898,-79.3658887,52 Princess St Toronto ON M5A 4C8 Canada,100.0
200780,2008,15,105 VICTORIA ST,16,1600.0,PARK 3 M OF FIRE HYDRANT,12.0,43.6521232,-79.37769159999999,105 Victoria St Toronto ON M5C 1N7 Canada,100.0
205304,2008,15,3 FENWICK AVE,16,1600.0,PARK 3 M OF FIRE HYDRANT,14.0,43.6767072,-79.34759059999999,3 Fenwick Ave Toronto ON M4K 3H2 Canada,100.0
206051,2008,15,347 DANFORTH AVE,16,1600.0,PARK 3 M OF FIRE HYDRANT,13.0,43.6772036,-79.3530943,347 Danforth Ave Toronto ON M4K 2Z1 Canada,100.0
206913,2008,15,420 EGLINTON AVE W,16,1600.0,PARK 3 M OF FIRE HYDRANT,13.0,43.7041949,-79.4110639,420 Eglinton Ave W Toronto ON M5N 1A2 Canada,100.0
204481,2008,15,248 GLADSTONE AVE,16,1600.0,PARK 3 M OF FIRE HYDRANT,14.0,43.6501718,-79.4301972,248 Gladstone Ave Toronto ON M6J 3L7 Canada,100.0
209113,2008,15,72 GLENDALE AVE,16,1600.0,PARK 3 M OF FIRE HYDRANT,14.0,43.641763,-79.4510145,72 Glendale Ave Toronto ON M6R 2T3 Canada,100.0
203563,2008,15,20 VICTORIA ST,16,1600.0,PARK 3 M OF FIRE HYDRANT,12.0,43.6499935,-79.37721959999999,20 Victoria St Toronto ON M5C 2N8 Canada,100.0
206862,2008,15,419 SPADINA RD,16,1600.0,PARK 3 M OF FIRE HYDRANT,13.0,43.6888234,-79.41275499999999,419 Spadina Rd Toronto ON M5P 2W3 Canada,100.0
209446,2008,15,8 HUMBERSTONE DR,16,1600.0,PARK 3 M OF FIRE HYDRANT,16.0,43.7576342,-79.4084833,8 Humberstone Dr North York ON M2N 7C1 Canada,100.0
205402,2008,15,30 SUNNYSIDE AVE,16,1600.0,PARK 3 M OF FIRE HYDRANT,14.0,43.6402564,-79.44914729999999,30 Sunnyside Ave Toronto ON M6R 1B5 Canada,100.0
594284,2009,15,56 THE ESPLANADE,429,42900.0,PARK 3 M OF FIRE HYDRANT,16.0,43.6471037,-79.3741972,56 The Esplanade Toronto ON M5E 1A6 Canada,100.0
592232,2009,15,33 ELMHURST AVE,364,36400.0,PARK 3 M OF FIRE HYDRANT,13.0,43.7624237,-79.4128298,33 Elmhurst Ave North York ON M2N 6G8 Canada,100.0
588041,2009,15,112 MERTON ST,363,36300.0,PARK 3 M OF FIRE HYDRANT,13.0,43.6971311,-79.39278449999999,112 Merton St Toronto ON M4S 2Z8 Canada,100.0
592857,2009,15,393 UNIVERSITY AVE,285,28500.0,PARK 3 M OF FIRE HYDRANT,12.0,43.65400959999999,-79.3872207,393 University Ave Toronto ON M5G Canada,100.0
594503,2009,15,6 SPRING GARDEN AVE,226,22600.0,PARK 3 M OF FIRE HYDRANT,15.0,43.7645273,-79.41070409999999,6 Spring Garden Ave North York ON M2N 7M2 Canada,100.0
594221,2009,15,5519 YONGE ST,214,21400.0,PARK 3 M OF FIRE HYDRANT,15.0,43.778369,-79.41481519999999,5519 Yonge St North York ON M2N 5S3 Canada,100.0
589778,2009,15,186 SPADINA AVE,209,20900.0,PARK 3 M OF FIRE HYDRANT,15.0,43.6497875,-79.3970569,186 Spadina Ave Toronto ON M5T 3B2 Canada,100.0
592492,2009,15,35 WELLINGTON ST E,198,19800.0,PARK 3 M OF FIRE HYDRANT,16.0,43.64812269999999,-79.3752092,35 Wellington St E Toronto ON M5E 1C6 Canada,100.0
596105,2009,15,99 ATLANTIC AVE,183,18300.0,PARK 3 M OF FIRE HYDRANT,15.0,43.6390371,-79.42022349999999,99 Atlantic Ave Toronto ON M6K 3J8 Canada,100.0
593245,2009,15,43 ELM ST,178,17800.0,PARK 3 M OF FIRE HYDRANT,15.0,43.6571928,-79.38367339999999,43 Elm St Toronto ON M5G 1H1 Canada,100.0
592986,2009,15,40 ORCHARD VIEW BLVD,174,17400.0,PARK 3 M OF FIRE HYDRANT,15.0,43.7081781,-79.39970579999999,40 Orchard View Blvd Toronto ON M4R 1B9 Canada,100.0
592604,2009,15,361 UNIVERSITY AVE,173,17300.0,PARK 3 M OF FIRE HYDRANT,12.0,43.65292729999999,-79.3860299,361 University Ave Toronto ON M5G 1T3 Canada,100.0
593147,2009,15,417 SPADINA RD,170,17000.0,PARK 3 M OF FIRE HYDRANT,11.0,43.6888272,-79.4125071,417 Spadina Rd Toronto ON M5P 2W3 Canada,100.0
593927,2009,15,5100 YONGE ST,168,16800.0,PARK 3 M OF FIRE HYDRANT,14.0,43.7672827,-79.414745,5100 Yonge St Toronto ON M2N 5W4 Canada,100.0
589065,2009,15,150 KILGOUR RD,168,16800.0,PARK 3 M OF FIRE HYDRANT,13.0,43.7182231,-79.3739944,150 Kilgour Rd East York ON M4G 0A2 Canada,100.0
594955,2009,15,680 COLLEGE ST,161,16100.0,PARK 3 M OF FIRE HYDRANT,16.0,43.6554407,-79.4173502,680 College St Toronto ON M6G 1C1 Canada,100.0
589326,2009,15,160 MUTUAL ST,157,15700.0,PARK 3 M OF FIRE HYDRANT,15.0,43.6592819,-79.37681309999999,160 Mutual St Toronto ON M5B 2M2 Canada,100.0
593250,2009,15,43 HANNA AVE,156,15600.0,PARK 3 M OF FIRE HYDRANT,16.0,43.6388753,-79.4192735,43 Hanna Ave Toronto ON M6K 1X1 Canada,100.0
595045,2009,15,7 ROCHEFORT DR,155,15500.0,PARK 3 M OF FIRE HYDRANT,13.0,43.718064,-79.3370936,7 Rochefort Dr North York ON M3C 1H4 Canada,100.0
590901,2009,15,24 FERNDALE AVE,153,15300.0,PARK 3 M OF FIRE HYDRANT,12.0,43.6896049,-79.3921927,24 Ferndale Ave Toronto ON M4T 2B3 Canada,100.0
591324,2009,15,26 WELLINGTON ST E,152,15200.0,PARK 3 M OF FIRE HYDRANT,14.0,43.6483334,-79.37581080000001,26 Wellington St E Toronto ON M5E 1S2 Canada,100.0
593957,2009,15,518 PALMERSTON BLVD,145,14500.0,PARK 3 M OF FIRE HYDRANT,15.0,43.66305430000001,-79.4133207,518 Palmerston Blvd Toronto ON M6G 2P3 Canada,100.0
587818,2009,15,107 HARBORD ST,143,14300.0,PARK 3 M OF FIRE HYDRANT,18.0,43.662448,-79.40420999999999,107 Harbord St Toronto ON M5S 1G7 Canada,100.0
593297,2009,15,44 BALLIOL ST,139,13900.0,PARK 3 M OF FIRE HYDRANT,14.0,43.69796669999999,-79.39507789999999,44 Balliol St Toronto ON M4S 1C1 Canada,100.0
595909,2009,15,91 BELLEVUE AVE,136,13600.0,PARK 3 M OF FIRE HYDRANT,14.0,43.6562553,-79.4037584,91 Bellevue Ave Toronto ON M5T 2N8 Canada,100.0
590703,2009,15,227 VICTORIA ST,132,13200.0,PARK 3 M OF FIRE HYDRANT,14.0,43.6553246,-79.3788385,227 Victoria St Toronto ON M5B 1T8 Canada,100.0
591975,2009,15,31 ELM ST,128,12800.0,PARK 3 M OF FIRE HYDRANT,15.0,43.657446,-79.38296199999999,31 Elm St Toronto ON M5G 1H1 Canada,100.0
596190,2009,15,BOROUGH DR,127,12700.0,PARK 3 M OF FIRE HYDRANT,12.0,43.7747957,-79.2609286,Borough Dr Toronto ON M1P Canada,100.0
596098,2009,15,98 THE ESPLANADE,121,12100.0,PARK 3 M OF FIRE HYDRANT,15.0,43.6478328,-79.37256140000001,98 The Esplanade Toronto ON M5E 1A9 Canada,100.0
590682,2009,15,225 WELLESLEY ST E,119,11900.0,PARK 3 M OF FIRE HYDRANT,13.0,43.6673242,-79.3725736,225 Wellesley St E Toronto ON M4X 1X8 Canada,100.0
590001,2009,15,2 ARUNDEL AVE,119,11900.0,PARK 3 M OF FIRE HYDRANT,17.0,43.678175,-79.3510826,2 Arundel Ave Toronto ON M4K 3A2 Canada,100.0
593714,2009,15,4910 YONGE ST,118,11800.0,PARK 3 M OF FIRE HYDRANT,14.0,43.7640535,-79.4120547,4910 Yonge St North York ON M2N Canada,100.0
591705,2009,15,293 SPADINA AVE,118,11800.0,PARK 3 M OF FIRE HYDRANT,15.0,43.653623,-79.3977756,293 Spadina Ave Toronto ON M5T 2E6 Canada,100.0
594964,2009,15,682 COLLEGE ST,115,11500.0,PARK 3 M OF FIRE HYDRANT,16.0,43.65525969999999,-79.4173521,682 College St Toronto ON M6G 1C1 Canada,100.0
593938,2009,15,5150 YONGE ST,114,11400.0,PARK 3 M OF FIRE HYDRANT,14.0,43.7686643,-79.413377,5150 Yonge St Toronto ON M2N 6L6 Canada,100.0
588368,2009,15,123 SUNNYSIDE AVE,113,11300.0,PARK 3 M OF FIRE HYDRANT,13.0,43.6419823,-79.4495242,123 Sunnyside Ave Toronto ON M6R 2P3 Canada,100.0
591050,2009,15,25 BELLEVUE AVE,112,11200.0,PARK 3 M OF FIRE HYDRANT,14.0,43.6538637,-79.40305959999999,25 Bellevue Ave Toronto ON M5T 1K8 Canada,100.0
593866,2009,15,5000 YONGE ST,105,10500.0,PARK 3 M OF FIRE HYDRANT,15.0,43.7662143,-79.4128728,5000 Yonge St North York ON M2N Canada,100.0
592586,2009,15,36 WELLINGTON ST E,103,10300.0,PARK 3 M OF FIRE HYDRANT,13.0,43.6483453,-79.37512989999999,36 Wellington St E Toronto ON M5E Canada,100.0
592064,2009,15,318 QUEEN ST W,101,10100.0,PARK 3 M OF FIRE HYDRANT,15.0,43.64937399999999,-79.3944037,318 Queen St W Toronto ON M5V 2A2 Canada,100.0
591844,2009,15,30 GRAND TRUNK CRES,96,9600.0,PARK 3 M OF FIRE HYDRANT,14.0,43.6422691,-79.3828039,30 Grand Trunk Crescent Toronto ON M5J 3A3 Canada,100.0
594773,2009,15,643 MOUNT PLEASANT RD,95,9500.0,PARK 3 M OF FIRE HYDRANT,16.0,43.7049159,-79.38876540000001,643 Mt Pleasant Rd Toronto ON M4S 2M9 Canada,100.0
592805,2009,15,387 QUEEN ST W,92,9200.0,PARK 3 M OF FIRE HYDRANT,14.0,43.6490541,-79.39417920000001,387 Queen St W Toronto ON M5V 2A5 Canada,100.0
591904,2009,15,3000 DANFORTH AVE,91,9100.0,PARK 3 M OF FIRE HYDRANT,18.0,43.6907909,-79.2912662,3000 Danforth Ave East York ON M4C 1M7 Canada,100.0
592128,2009,15,32 WELLINGTON ST E,91,9100.0,PARK 3 M OF FIRE HYDRANT,15.0,43.6483205,-79.375238,32 Wellington St E Toronto ON M5E Canada,100.0
592229,2009,15,33 ELM ST,90,9000.0,PARK 3 M OF FIRE HYDRANT,17.0,43.6574601,-79.3833344,33 Elm St Toronto ON M5G 1H1 Canada,100.0
594441,2009,15,592 MARKHAM ST,89,8900.0,PARK 3 M OF FIRE HYDRANT,15.0,43.6638358,-79.41221469999999,592 Markham St Toronto ON M6G 2L8 Canada,100.0
595822,2009,15,9 CHURCH ST,87,8700.0,PARK 3 M OF FIRE HYDRANT,14.0,43.6478315,-79.3732265,9 Church St Toronto ON M5E 1W1 Canada,100.0
591781,2009,15,3 EVERSON DR,82,8200.0,PARK 3 M OF FIRE HYDRANT,16.0,43.757153,-79.4065529,3 Everson Dr North York ON M2N 7C2 Canada,100.0
593892,2009,15,51 ALEXANDER ST,82,8200.0,PARK 3 M OF FIRE HYDRANT,15.0,43.6629419,-79.3812645,51 Alexander St Toronto ON M4Y 1B2 Canada,100.0
588978,2009,15,15 DORIS AVE,80,8000.0,PARK 3 M OF FIRE HYDRANT,13.0,43.7626563,-79.40841259999999,15 Doris Ave North York ON M2N 5X9 Canada,100.0
591612,2009,15,287 ASSINIBOINE RD,80,8000.0,PARK 3 M OF FIRE HYDRANT,14.0,43.7686783,-79.4992989,287 Assiniboine Rd North York ON M3J 0C4 Canada,100.0
593677,2009,15,49 BELLEVUE AVE,80,8000.0,PARK 3 M OF FIRE HYDRANT,14.0,43.65466079999999,-79.4034278,49 Bellevue Ave Toronto ON M5T 2N5 Canada,100.0
595654,2009,15,84 YORKVILLE AVE,78,7800.0,PARK 3 M OF FIRE HYDRANT,15.0,43.6711713,-79.391593,84 Yorkville Ave Toronto ON M5R 1B9 Canada,100.0
591840,2009,15,30 GLENDALE AVE,78,7800.0,PARK 3 M OF FIRE HYDRANT,12.0,43.6403938,-79.4514344,30 Glendale Ave Toronto ON M6R 2S7 Canada,100.0
595245,2009,15,74 WILLCOCKS ST,77,7700.0,PARK 3 M OF FIRE HYDRANT,17.0,43.6613459,-79.40212939999999,74 Willcocks St Toronto ON M5S 1C8 Canada,100.0
589492,2009,15,17 PRINCE ARTHUR AVE,76,7600.0,PARK 3 M OF FIRE HYDRANT,15.0,43.6694988,-79.39592929999999,17 Prince Arthur Ave Toronto ON M5R 1B2 Canada,100.0
589527,2009,15,171 KING ST E,75,7500.0,PARK 3 M OF FIRE HYDRANT,14.0,43.6504704,-79.3713977,171 King St E Toronto ON M5A 1J4 Canada,100.0
591687,2009,15,291 SPADINA AVE,74,7400.0,PARK 3 M OF FIRE HYDRANT,15.0,43.65348849999999,-79.39777620000001,291 Spadina Ave Toronto ON M5T 2E6 Canada,100.0
596028,2009,15,95 THE ESPLANADE,74,7400.0,PARK 3 M OF FIRE HYDRANT,15.0,43.6472933,-79.3728805,95 The Esplanade Toronto ON M5E 1Y8 Canada,100.0
593146,2009,15,417 SPADINA AVE,74,7400.0,PARK 3 M OF FIRE HYDRANT,14.0,43.6570395,-79.3994077,417 Spadina Ave Toronto ON M5T 2G6 Canada,100.0
595883,2009,15,90 KIPPENDAVIE AVE,74,7400.0,PARK 3 M OF FIRE HYDRANT,16.0,43.6683146,-79.30411389999999,90 Kippendavie Ave Toronto ON M4L 3R5 Canada,100.0
592946,2009,15,40 ASQUITH AVE,74,7400.0,PARK 3 M OF FIRE HYDRANT,13.0,43.671974,-79.38507349999999,40 Asquith Ave Toronto ON M4W 3W7 Canada,100.0
591961,2009,15,309 ASSINIBOINE RD,73,7300.0,PARK 3 M OF FIRE HYDRANT,14.0,43.7684432,-79.5003339,309 Assiniboine Rd North York ON M3J 0B9 Canada,100.0
591763,2009,15,299 SPADINA AVE,73,7300.0,PARK 3 M OF FIRE HYDRANT,15.0,43.6536337,-79.3978762,299 Spadina Ave Toronto ON M5T 2E6 Canada,100.0
591673,2009,15,290 QUEEN ST W,72,7200.0,PARK 3 M OF FIRE HYDRANT,15.0,43.6497036,-79.39305739999999,290 Queen St W Toronto ON M5V 2A1 Canada,100.0
596112,2009,15,99 ERSKINE AVE,70,7000.0,PARK 3 M OF FIRE HYDRANT,9.0,43.7116473,-79.3958179,99 Erskine Ave Toronto ON M4P 1Y5 Canada,100.0
592274,2009,15,330 UNIVERSITY AVE,67,6700.0,PARK 3 M OF FIRE HYDRANT,14.0,43.6516649,-79.38759680000001,Canada Life Building 330 University Ave Toronto ON M5G Canada,100.0
589656,2009,15,18 LOLA RD,66,6600.0,PARK 3 M OF FIRE HYDRANT,16.0,43.7017776,-79.3979331,18 Lola Rd Toronto ON M5P 1E4 Canada,100.0
595656,2009,15,840 COXWELL AVE,65,6500.0,PARK 3 M OF FIRE HYDRANT,12.0,43.6900163,-79.3271038,840 Coxwell Ave East York ON M4C 5T2 Canada,100.0
588716,2009,15,139 WOODWARD AVE,65,6500.0,PARK 3 M OF FIRE HYDRANT,14.0,43.70973480000001,-79.50714769999999,139 Woodward Ave York ON M9N 2J4 Canada,100.0
588976,2009,15,15 DEVONSHIRE PL,65,6500.0,PARK 3 M OF FIRE HYDRANT,16.0,43.6655774,-79.3973432,15 Devonshire Pl Toronto ON M5S 2C8 Canada,100.0
593860,2009,15,500 KING ST W,63,6300.0,PARK 3 M OF FIRE HYDRANT,16.0,43.6452912,-79.39676089999999,500 King St W Toronto ON M5V 1L8 Canada,100.0
593766,2009,15,5 EVERSON DR,62,6200.0,PARK 3 M OF FIRE HYDRANT,17.0,43.75740769999999,-79.40685330000001,5 Everson Dr North York ON M2N 7C3 Canada,100.0
593882,2009,15,5050 YONGE ST,62,6200.0,PARK 3 M OF FIRE HYDRANT,14.0,43.7670456,-79.4134279,5050 Yonge St North York ON M2N 7H1 Canada,100.0
589826,2009,15,19 CLINTON ST,61,6100.0,PARK 3 M OF FIRE HYDRANT,16.0,43.6543946,-79.4135737,19 Clinton St Toronto ON M6J 2P1 Canada,100.0
594312,2009,15,5645 YONGE ST,61,6100.0,PARK 3 M OF FIRE HYDRANT,14.0,43.7812329,-79.4157393,5645 Yonge St North York ON M2M Canada,100.0
593089,2009,15,410 CRAWFORD ST,61,6100.0,PARK 3 M OF FIRE HYDRANT,16.0,43.6555678,-79.4195707,410 Crawford St Toronto ON M6G 3J6 Canada,100.0
592309,2009,15,334 DUNDAS ST W,61,6100.0,PARK 3 M OF FIRE HYDRANT,14.0,43.65425690000001,-79.392479,334 Dundas St W Toronto ON M5T 1G5 Canada,100.0
588068,2009,15,113 HAZELTON AVE,60,6000.0,PARK 3 M OF FIRE HYDRANT,15.0,43.6742259,-79.3942977,113 Hazelton Ave Toronto ON M5R 2E4 Canada,100.0
591284,2009,15,26 FERNDALE AVE,60,6000.0,PARK 3 M OF FIRE HYDRANT,12.0,43.6896999,-79.3922276,26 Ferndale Ave Toronto ON M4T 2B3 Canada,100.0
594156,2009,15,5460 YONGE ST,59,5900.0,PARK 3 M OF FIRE HYDRANT,15.0,43.7773432,-79.4154674,5460 Yonge St North York ON M2N 6K7 Canada,100.0
592386,2009,15,34 LITTLE NORWAY CRES,58,5800.0,PARK 3 M OF FIRE HYDRANT,15.0,43.6340934,-79.3990731,34 Little Norway Crescent Toronto ON M5V 3A3 Canada,100.0
592327,2009,15,336 DUNDAS ST W,57,5700.0,PARK 3 M OF FIRE HYDRANT,13.0,43.6542373,-79.39258579999999,336 Dundas St W Toronto ON M5T 1G5 Canada,100.0
588503,2009,15,13 ELM ST,57,5700.0,PARK 3 M OF FIRE HYDRANT,15.0,43.657548,-79.38234349999999,13 Elm St Toronto ON M5G 1H1 Canada,100.0
587558,2009,15,10 HOLLYWOOD AVE,56,5600.0,PARK 3 M OF FIRE HYDRANT,14.0,43.6774851,-79.3166129,10 Hollywood Crescent Toronto ON M4L 2K5 Canada,100.0
595366,2009,15,777 JARVIS ST,54,5400.0,PARK 3 M OF FIRE HYDRANT,12.0,43.6699843,-79.3799006,777 Jarvis St Toronto ON M4Y Canada,100.0
590450,2009,15,214 MC CAUL ST,54,5400.0,PARK 3 M OF FIRE HYDRANT,13.0,43.6574136,-79.3930747,214 McCaul St Toronto ON M5T 1W5 Canada,100.0
591616,2009,15,288 QUEEN ST W,53,5300.0,PARK 3 M OF FIRE HYDRANT,15.0,43.649705,-79.3928756,288 Queen St W Toronto ON M5V 2A4 Canada,100.0
589233,2009,15,1593 BAYVIEW AVE,52,5200.0,PARK 3 M OF FIRE HYDRANT,16.0,43.7060789,-79.3751145,1593 Bayview Ave East York ON M4G 3B5 Canada,100.0
588532,2009,15,130 GOWAN AVE,52,5200.0,PARK 3 M OF FIRE HYDRANT,16.0,43.6884461,-79.3500019,130 Gowan Ave East York ON M4K 2E3 Canada,100.0
592681,2009,15,37 PRINCE ARTHUR AVE,52,5200.0,PARK 3 M OF FIRE HYDRANT,13.0,43.66923999999999,-79.39720419999999,37 Prince Arthur Ave Toronto ON M5R 1B2 Canada,100.0
591631,2009,15,29 ELM ST,51,5100.0,PARK 3 M OF FIRE HYDRANT,16.0,43.6574038,-79.38310690000002,29 Elm St Toronto ON M5G 1H1 Canada,100.0
589528,2009,15,171 SPADINA AVE,50,5000.0,PARK 3 M OF FIRE HYDRANT,13.0,43.6492957,-79.3963309,171 Spadina Ave Toronto ON M5T 2C3 Canada,100.0
594190,2009,15,55 LISGAR ST,49,4900.0,PARK 3 M OF FIRE HYDRANT,13.0,43.6426551,-79.423227,55 Lisgar St Toronto ON M6J 3X6 Canada,100.0
595617,2009,15,83 LILLIAN ST,49,4900.0,PARK 3 M OF FIRE HYDRANT,14.0,43.7067968,-79.39363159999999,83 Lillian St Toronto ON M4S 2H7 Canada,100.0
590749,2009,15,23 JORDAN ST,49,4900.0,PARK 3 M OF FIRE HYDRANT,13.0,43.6483629,-79.3785777,23 Jordan St Toronto ON M5L 2A1 Canada,100.0
588276,2009,15,12 TEMPERANCE ST,49,4900.0,PARK 3 M OF FIRE HYDRANT,14.0,43.651107,-79.3795729,12 Temperance St Toronto ON M5H 1Y4 Canada,100.0
594212,2009,15,55 YORK ST,48,4800.0,PARK 3 M OF FIRE HYDRANT,11.0,43.6462314,-79.3824494,55 York St Toronto ON M5J 1R7 Canada,100.0
588965,2009,15,15 BREADALBANE ST,48,4800.0,PARK 3 M OF FIRE HYDRANT,15.0,43.6636416,-79.3850222,15 Breadalbane St Toronto ON M4Y 1C2 Canada,100.0
593733,2009,15,4950 YONGE ST,48,4800.0,PARK 3 M OF FIRE HYDRANT,14.0,43.7648382,-79.41270899999999,4950 Yonge St Toronto ON M2N 6K1 Canada,100.0
592265,2009,15,33 WILLCOCKS ST,47,4700.0,PARK 3 M OF FIRE HYDRANT,17.0,43.6614454,-79.4000863,33 Willcocks St Toronto ON M5S Canada,100.0
587929,2009,15,11 SELBY ST,47,4700.0,PARK 3 M OF FIRE HYDRANT,15.0,43.6711063,-79.3777257,11 Selby St Toronto ON M4Y 1W3 Canada,100.0
593232,2009,15,427 DANFORTH AVE,47,4700.0,PARK 3 M OF FIRE HYDRANT,15.0,43.6776276,-79.3509298,427 Danforth Ave Toronto ON M4K 1P1 Canada,100.0
591489,2009,15,275 BLEECKER ST,47,4700.0,PARK 3 M OF FIRE HYDRANT,15.0,43.6687541,-79.37355960000001,275 Bleecker St Toronto ON M4X 1M1 Canada,100.0
594066,2009,15,533 PALMERSTON BLVD,47,4700.0,PARK 3 M OF FIRE HYDRANT,15.0,43.6639553,-79.4131584,533 Palmerston Blvd Toronto ON M6G 2P4 Canada,100.0
595552,2009,15,81 FRONT ST E,45,4500.0,PARK 3 M OF FIRE HYDRANT,14.0,43.6487275,-79.3725058,81 Front St E Toronto ON M5E 1B8 Canada,100.0
593592,2009,15,476 DUNDAS ST W,45,4500.0,PARK 3 M OF FIRE HYDRANT,13.0,43.6533156,-79.396884,476 Dundas St W Toronto ON M5T 1G9 Canada,100.0
591795,2009,15,3 PARK HOME AVE,44,4400.0,PARK 3 M OF FIRE HYDRANT,14.0,43.7683918,-79.4143753,3 Park Home Ave Toronto ON M2N Canada,100.0
593207,2009,15,421 DANFORTH AVE,44,4400.0,PARK 3 M OF FIRE HYDRANT,16.0,43.6775893,-79.3510818,421 Danforth Ave Toronto ON M4K 1P1 Canada,100.0
588298,2009,15,120 INDIAN RD,44,4400.0,PARK 3 M OF FIRE HYDRANT,12.0,43.6434672,-79.453385,120 Indian Rd Toronto ON M6R 2V4 Canada,100.0
594501,2009,15,6 SETTLERS RD,44,4400.0,PARK 3 M OF FIRE HYDRANT,12.0,43.7723591,-79.32726819999999,Settlers Rd North York ON M2J Canada,100.0
595080,2009,15,70 MILL ST,44,4400.0,PARK 3 M OF FIRE HYDRANT,18.0,43.65105459999999,-79.3590608,70 Mill St Toronto ON M5A 4R1 Canada,100.0
591283,2009,15,26 FARNHAM AVE,44,4400.0,PARK 3 M OF FIRE HYDRANT,13.0,43.6849035,-79.3941765,26 Farnham Ave Toronto ON M4V 1H4 Canada,100.0
588084,2009,15,114 BALMORAL AVE,43,4300.0,PARK 3 M OF FIRE HYDRANT,12.0,43.6849667,-79.3982443,114 Balmoral Ave Toronto ON M4V 1J4 Canada,100.0
595176,2009,15,720 KING ST W,42,4200.0,PARK 3 M OF FIRE HYDRANT,15.0,43.6439189,-79.4041711,720 King St W Toronto ON M5V Canada,100.0
593737,2009,15,4968 YONGE ST,42,4200.0,PARK 3 M OF FIRE HYDRANT,17.0,43.7651528,-79.4122785,4968 Yonge St North York ON M2N 7H1 Canada,100.0
592366,2009,15,34 BORDEN ST,42,4200.0,PARK 3 M OF FIRE HYDRANT,13.0,43.6579392,-79.4057006,34 Borden St Toronto ON M5S 2M9 Canada,100.0
593621,2009,15,48 HEATH ST E,42,4200.0,PARK 3 M OF FIRE HYDRANT,12.0,43.69066979999999,-79.39257479999999,48 Heath St E Toronto ON M4T 1S3 Canada,100.0
596144,2009,15,ALBERT ST,42,4200.0,PARK 3 M OF FIRE HYDRANT,14.0,43.6532393,-79.38133409999999,Albert St Toronto ON Canada,100.0
589133,2009,15,1545 BAYVIEW AVE,41,4100.0,PARK 3 M OF FIRE HYDRANT,15.0,43.7052461,-79.3746244,1545 Bayview Ave Toronto ON M4G 3B5 Canada,100.0
588035,2009,15,112 GEORGE ST S,41,4100.0,PARK 3 M OF FIRE HYDRANT,13.0,43.6491751,-79.37030109999999,112 George St S Toronto ON M5A 4P8 Canada,100.0
592122,2009,15,32 STEWART ST,41,4100.0,PARK 3 M OF FIRE HYDRANT,11.0,43.643567,-79.401032,32 Stewart St Toronto ON M5V 1H6 Canada,100.0
595535,2009,15,801 QUEEN ST W,41,4100.0,PARK 3 M OF FIRE HYDRANT,16.0,43.6461516,-79.40874409999999,801 Queen St W Toronto ON M6J 1G1 Canada,100.0
592591,2009,15,360 MANNING AVE,41,4100.0,PARK 3 M OF FIRE HYDRANT,14.0,43.65540540000001,-79.4125968,360 Manning Ave Toronto ON M6G 1A9 Canada,100.0
588676,2009,15,137 EDWARD ST,40,4000.0,PARK 3 M OF FIRE HYDRANT,12.0,43.65547249999999,-79.38787359999999,137 Edward St Toronto ON M5G 2P1 Canada,100.0
587450,2009,15,1 BROOKDALE AVE,40,4000.0,PARK 3 M OF FIRE HYDRANT,12.0,43.7299102,-79.4036476,1 Brookdale Ave Toronto ON M5M 1P2 Canada,100.0
589393,2009,15,165 SPADINA AVE,39,3900.0,PARK 3 M OF FIRE HYDRANT,15.0,43.6490977,-79.39625319999999,165 Spadina Ave Toronto ON M5T 2C4 Canada,100.0
595494,2009,15,80 CARLTON ST,39,3900.0,PARK 3 M OF FIRE HYDRANT,12.0,43.6623192,-79.3788462,80 Carlton St Toronto ON M5B 1L6 Canada,100.0
589860,2009,15,19 PRINCESS ST,39,3900.0,PARK 3 M OF FIRE HYDRANT,16.0,43.6485886,-79.3656768,19 Princess St Toronto ON M5A 4C8 Canada,100.0
595955,2009,15,922 LOGAN AVE,39,3900.0,PARK 3 M OF FIRE HYDRANT,16.0,43.678856,-79.3499404,922 Logan Ave Toronto ON M4K 3E4 Canada,100.0
593129,2009,15,415 QUEEN ST W,39,3900.0,PARK 3 M OF FIRE HYDRANT,15.0,43.6488899,-79.3949775,415 Queen St W Toronto ON M5V 2A5 Canada,100.0
590107,2009,15,2 TEMPERANCE ST,38,3800.0,PARK 3 M OF FIRE HYDRANT,13.0,43.6510848,-79.37912290000001,2 Temperance St Toronto ON M5C 1X6 Canada,100.0
591890,2009,15,300 BOROUGH DR,38,3800.0,PARK 3 M OF FIRE HYDRANT,11.0,43.7764253,-79.2585331,300 Borough Dr Toronto ON M1P 4P5 Canada,100.0
592021,2009,15,312 COOK RD,37,3700.0,PARK 3 M OF FIRE HYDRANT,14.0,43.7674899,-79.4999165,312 Cook Rd North York ON M3J 0C2 Canada,100.0
592048,2009,15,316 QUEEN ST W,37,3700.0,PARK 3 M OF FIRE HYDRANT,16.0,43.6494615,-79.394306,316 Queen St W Toronto ON M5V Canada,100.0
596433,2009,15,MORTIMER AVE,37,3700.0,PARK 3 M OF FIRE HYDRANT,13.0,43.6884328,-79.3364359,Mortimer Ave Toronto ON Canada,100.0
591530,2009,15,28 BALMORAL AVE,37,3700.0,PARK 3 M OF FIRE HYDRANT,12.0,43.6857428,-79.3945525,28 Balmoral Ave Toronto ON M4V 1J4 Canada,100.0
593248,2009,15,43 FRONT ST E,37,3700.0,PARK 3 M OF FIRE HYDRANT,15.0,43.6479156,-79.3745495,43 Front St E Toronto ON M5E 1B3 Canada,100.0
591387,2009,15,265 ASSINIBOINE RD,36,3600.0,PARK 3 M OF FIRE HYDRANT,14.0,43.7688985,-79.4982708,265 Assiniboine Rd North York ON M3J 0C8 Canada,100.0
591048,2009,15,25 BEDFORD RD,36,3600.0,PARK 3 M OF FIRE HYDRANT,16.0,43.6700124,-79.3977139,25 Bedford Rd Toronto ON M5R 2K1 Canada,100.0
587902,2009,15,11 CLARENDON AVE,36,3600.0,PARK 3 M OF FIRE HYDRANT,11.0,43.6831062,-79.4012374,11 Clarendon Ave Toronto ON M4V 1H8 Canada,100.0
594374,2009,15,58 MARINE PARADE DR,36,3600.0,PARK 3 M OF FIRE HYDRANT,16.0,43.6273029,-79.4768643,58 Marine Parade Dr Etobicoke ON M8V 4G1 Canada,100.0
595312,2009,15,76 PEARL ST,36,3600.0,PARK 3 M OF FIRE HYDRANT,13.0,43.6485365,-79.38395129999999,76 Pearl St Toronto ON M5H Canada,100.0
595319,2009,15,761 QUEEN ST W,36,3600.0,PARK 3 M OF FIRE HYDRANT,17.0,43.6463274,-79.4078138,761 Queen St W Toronto ON M6J 1G1 Canada,100.0
589318,2009,15,160 FREDERICK ST,36,3600.0,PARK 3 M OF FIRE HYDRANT,12.0,43.6501492,-79.3691087,160 Frederick St Toronto ON M5A 1E2 Canada,100.0
589346,2009,15,162 BORDEN ST,35,3500.0,PARK 3 M OF FIRE HYDRANT,13.0,43.6611593,-79.4070397,162 Borden St Toronto ON M5S 2N3 Canada,100.0
593708,2009,15,4900 YONGE ST,35,3500.0,PARK 3 M OF FIRE HYDRANT,14.0,43.7633623,-79.41291609999999,Joseph Shepard Building 4900 Yonge St North York ON M2N Canada,100.0
589476,2009,15,17 ISABELLA ST,35,3500.0,PARK 3 M OF FIRE HYDRANT,14.0,43.6676782,-79.38456149999999,17 Isabella St Toronto ON M4Y 1N1 Canada,100.0
588061,2009,15,113 BALLIOL ST,35,3500.0,PARK 3 M OF FIRE HYDRANT,13.0,43.69789069999999,-79.3931722,113 Balliol St Toronto ON M4S 1C2 Canada,100.0
591208,2009,15,255 HURON ST,34,3400.0,PARK 3 M OF FIRE HYDRANT,15.0,43.6608887,-79.3988066,255 Huron St Toronto ON M5S 3J1 Canada,100.0
590245,2009,15,200 CHURCH ST,34,3400.0,PARK 3 M OF FIRE HYDRANT,15.0,43.6548942,-79.3774545,200 Church St Toronto ON M5B 1X5 Canada,100.0
591988,2009,15,31 HOWARD ST,34,3400.0,PARK 3 M OF FIRE HYDRANT,12.0,43.67111269999999,-79.3748501,31 Howard St Toronto ON M4X 1J6 Canada,100.0
587525,2009,15,1 WILLCOCKS ST,34,3400.0,PARK 3 M OF FIRE HYDRANT,14.0,43.6620627,-79.3976216,1 Willcocks St Toronto ON M5S 3G3 Canada,100.0
590958,2009,15,2409 YONGE ST,34,3400.0,PARK 3 M OF FIRE HYDRANT,15.0,43.7103604,-79.3987051,2409 Yonge St Toronto ON M4P 2E7 Canada,100.0
590161,2009,15,20 EDWARD ST,34,3400.0,PARK 3 M OF FIRE HYDRANT,15.0,43.65696699999999,-79.382122,20 Edward St Toronto ON M5G 1C9 Canada,100.0
591928,2009,15,304 ADELAIDE ST W,34,3400.0,PARK 3 M OF FIRE HYDRANT,16.0,43.6477927,-79.3912922,304 Adelaide St W Toronto ON M5V 1P6 Canada,100.0
587598,2009,15,10 TEMPERANCE ST,34,3400.0,PARK 3 M OF FIRE HYDRANT,13.0,43.6510992,-79.3791616,Dineen Building 10 Temperance St Toronto ON M5H 1Y4 Canada,100.0
591666,2009,15,290 COOK RD,34,3400.0,PARK 3 M OF FIRE HYDRANT,14.0,43.7677093,-79.4988604,290 Cook Rd North York ON M3J 0C6 Canada,100.0
595691,2009,15,850 COXWELL AVE,34,3400.0,PARK 3 M OF FIRE HYDRANT,13.0,43.69124799999999,-79.3283427,East York Civic Centre 850 Coxwell Ave East York ON M4C 5R1 Canada,100.0
594957,2009,15,680 ROSELAWN AVE,33,3300.0,PARK 3 M OF FIRE HYDRANT,15.0,43.7057238,-79.42536489999999,680 Roselawn Ave Toronto ON M5N 1L3 Canada,100.0
590268,2009,15,200 ST CLAIR AVE W,33,3300.0,PARK 3 M OF FIRE HYDRANT,12.0,43.6867578,-79.4025561,200 St Clair Ave W Toronto ON M4V 1R1 Canada,100.0
593748,2009,15,5 BATHURST ST,33,3300.0,PARK 3 M OF FIRE HYDRANT,17.0,43.6401732,-79.4011517,5 Bathurst St Toronto ON M5V Canada,100.0
590367,2009,15,21 BERNARD AVE,33,3300.0,PARK 3 M OF FIRE HYDRANT,14.0,43.6736599,-79.3975293,21 Bernard Ave Toronto ON M5R 1R3 Canada,100.0
595986,2009,15,94 JACK EVELYN WIGGINS DR,33,3300.0,PARK 3 M OF FIRE HYDRANT,15.0,43.7680093,-79.49549449999999,Evelyn Wiggins Drive North York ON M3J Canada,100.0
593020,2009,15,400 SPADINA RD,33,3300.0,PARK 3 M OF FIRE HYDRANT,13.0,43.6881899,-79.41287799999999,400 Spadina Rd Toronto ON M5P 2W2 Canada,100.0
588730,2009,15,14 CLARENCE SQ,33,3300.0,PARK 3 M OF FIRE HYDRANT,14.0,43.644666,-79.3934005,14 Clarence Square Toronto ON M5V 1H1 Canada,100.0
592168,2009,15,3224 YONGE ST,32,3200.0,PARK 3 M OF FIRE HYDRANT,12.0,43.7289401,-79.40347469999999,3224 Yonge St Toronto ON M4N 2L2 Canada,100.0
588356,2009,15,1226 ST CLAIR AVE W,32,3200.0,PARK 3 M OF FIRE HYDRANT,15.0,43.67767689999999,-79.4449964,1226 St Clair Ave W Toronto ON M6E 1B4 Canada,100.0
594181,2009,15,55 FAIRLAWN AVE,32,3200.0,PARK 3 M OF FIRE HYDRANT,14.0,43.7303959,-79.4054039,55 Fairlawn Ave Toronto ON M5M 1S6 Canada,100.0
589607,2009,15,179 DANFORTH AVE,32,3200.0,PARK 3 M OF FIRE HYDRANT,15.0,43.6764606,-79.35643259999999,179 Danforth Ave Toronto ON M4K 1N2 Canada,100.0
592143,2009,15,320 QUEEN ST W,31,3100.0,PARK 3 M OF FIRE HYDRANT,16.0,43.6493956,-79.3944533,320 Queen St W Toronto ON M5V 2A2 Canada,100.0
592429,2009,15,345 DANFORTH AVE,31,3100.0,PARK 3 M OF FIRE HYDRANT,15.0,43.6771974,-79.35315,345 Danforth Ave Toronto ON M4K 1N7 Canada,100.0
593071,2009,15,41 FRONT ST E,31,3100.0,PARK 3 M OF FIRE HYDRANT,14.0,43.6478101,-79.3746036,41 Front St E Toronto ON M5E 1B3 Canada,100.0
590068,2009,15,2 MARKET ST,31,3100.0,PARK 3 M OF FIRE HYDRANT,13.0,43.6471765,-79.3713774,2 Market St Toronto ON M5E 1Y9 Canada,100.0
595799,2009,15,89 LILLIAN ST,31,3100.0,PARK 3 M OF FIRE HYDRANT,16.0,43.7071075,-79.3934165,89 Lillian St Toronto ON M4S 2H7 Canada,100.0
593763,2009,15,5 DUFRESNE CRT,31,3100.0,PARK 3 M OF FIRE HYDRANT,18.0,43.7150514,-79.3306688,5 Dufresne Ct Toronto ON M3C Canada,100.0
593148,2009,15,418 EGLINTON AVE W,30,3000.0,PARK 3 M OF FIRE HYDRANT,13.0,43.7042857,-79.4110623,418 Eglinton Ave W Toronto ON M5N 1A2 Canada,100.0
592135,2009,15,320 BRUNSWICK AVE,30,3000.0,PARK 3 M OF FIRE HYDRANT,16.0,43.6665654,-79.40802110000001,320 Brunswick Ave Toronto ON M5R 2Y9 Canada,100.0
587663,2009,15,101 BLOOR ST W,30,3000.0,PARK 3 M OF FIRE HYDRANT,14.0,43.6690924,-79.3912525,101 Bloor St W Toronto ON M5S 3L7 Canada,100.0
592053,2009,15,317 LONSDALE RD,30,3000.0,PARK 3 M OF FIRE HYDRANT,12.0,43.6887959,-79.4114379,317 Lonsdale Rd Toronto ON M4V 1X3 Canada,100.0
596584,2009,15,WILLCOCKS ST,30,3000.0,PARK 3 M OF FIRE HYDRANT,13.0,43.6614219,-79.40076520000001,Willcocks St Toronto ON M5S Canada,100.0
593206,2009,15,420 WELLINGTON ST W,30,3000.0,PARK 3 M OF FIRE HYDRANT,11.0,43.6438913,-79.39641639999999,420 Wellington St W Toronto ON M5V 1E3 Canada,100.0
594392,2009,15,580 KING ST W,30,3000.0,PARK 3 M OF FIRE HYDRANT,13.0,43.6451011,-79.3994969,580 King St W Toronto ON M5V 1M1 Canada,100.0
593029,2009,15,401 WELLINGTON ST W,30,3000.0,PARK 3 M OF FIRE HYDRANT,14.0,43.6434672,-79.39487749999999,401 Wellington St W Toronto ON M5V 1E7 Canada,100.0
588813,2009,15,141 ISABELLA ST,29,2900.0,PARK 3 M OF FIRE HYDRANT,15.0,43.6692661,-79.3765963,141 Isabella St Toronto ON M4Y 1P3 Canada,100.0
592249,2009,15,33 NIAGARA ST,29,2900.0,PARK 3 M OF FIRE HYDRANT,14.0,43.6420682,-79.4005749,33 Niagara St Toronto ON M5V 1C2 Canada,100.0
588181,2009,15,118 YORKVILLE AVE,29,2900.0,PARK 3 M OF FIRE HYDRANT,15.0,43.6708347,-79.3937136,118 Yorkville Ave Toronto ON M5R 1C2 Canada,100.0
589781,2009,15,1862 QUEEN ST E,29,2900.0,PARK 3 M OF FIRE HYDRANT,14.0,43.6687011,-79.3071652,1862 Queen St E Toronto ON M4L 1H1 Canada,100.0
587461,2009,15,1 DUPLEX AVE,29,2900.0,PARK 3 M OF FIRE HYDRANT,14.0,43.6980599,-79.39805,1 Duplex Ave Toronto ON M5P Canada,100.0
595225,2009,15,738 RICHMOND ST W,28,2800.0,PARK 3 M OF FIRE HYDRANT,13.0,43.645753,-79.4085261,738 Richmond St W Toronto ON M6J 1C5 Canada,100.0
596542,2009,15,STRATHMORE BLVD,28,2800.0,PARK 3 M OF FIRE HYDRANT,14.0,43.6837824,-79.3257028,Strathmore Blvd Toronto ON Canada,100.0
588674,2009,15,137 DANFORTH AVE,28,2800.0,PARK 3 M OF FIRE HYDRANT,15.0,43.6762808,-79.3574387,137 Danforth Ave Toronto ON M4K 1N2 Canada,100.0
589917,2009,15,194 GRACE ST,28,2800.0,PARK 3 M OF FIRE HYDRANT,12.0,43.6563844,-79.4164417,194 Grace St Toronto ON M6G 3A6 Canada,100.0
595007,2009,15,691 QUEEN ST W,28,2800.0,PARK 3 M OF FIRE HYDRANT,13.0,43.6468637,-79.405164,691 Queen St W Toronto ON M6J 1E6 Canada,100.0
